{
  "version": "2026-06-22",
  "source": "generated from mobile-app city picker; calibrated with pfinal/city region.sql bd09ll coordinates converted to WGS84 approximation; manual overrides for verified farm-manager hot spots",
  "source_urls": [
    "https://github.com/pfinal/city",
    "https://raw.githubusercontent.com/pfinal/city/master/region.sql"
  ],
  "coordinate_note": "Most calibrated coordinates are WGS84 approximations converted from BD-09; use GPS or provider geocoding when higher precision is required.",
  "regions": [
    {
      "province": "北京市",
      "city": "北京市",
      "district": "东城区",
      "name": "东城区",
      "full_name": "北京市东城区",
      "display_name": "北京市东城区",
      "adcode": "110101",
      "lat": 39.927198,
      "lon": 116.40976,
      "level": "district",
      "coordinate_system": "WGS84_APPROX_FROM_BD09",
      "coordinate_source": "pfinal_city_region_sql_bd09ll_converted",
      "aliases": [
        "北京东城区",
        "北京市东城区"
      ]
    },
    {
      "province": "北京市",
      "city": "北京市",
      "district": "西城区",
      "name": "西城区",
      "full_name": "北京市西城区",
      "display_name": "北京市西城区",
      "adcode": "110102",
      "lat": 39.910822,
      "lon": 116.359786,
      "level": "district",
      "coordinate_system": "WGS84_APPROX_FROM_BD09",
      "coordinate_source": "pfinal_city_region_sql_bd09ll_converted",
      "aliases": [
        "北京市西城区",
        "北京西城区"
      ]
    },
    {
      "province": "北京市",
      "city": "北京市",
      "district": "朝阳区",
      "name": "朝阳区",
      "full_name": "北京市朝阳区",
      "display_name": "北京市朝阳区",
      "adcode": "110105",
      "lat": 39.919233,
      "lon": 116.436803,
      "level": "district",
      "coordinate_system": "WGS84_APPROX_FROM_BD09",
      "coordinate_source": "pfinal_city_region_sql_bd09ll_converted",
      "aliases": [
        "北京市朝阳区",
        "北京朝阳区"
      ]
    },
    {
      "province": "北京市",
      "city": "北京市",
      "district": "丰台区",
      "name": "丰台区",
      "full_name": "北京市丰台区",
      "display_name": "北京市丰台区",
      "adcode": "110106",
      "lat": 39.857362,
      "lon": 116.279955,
      "level": "district",
      "coordinate_system": "WGS84_APPROX_FROM_BD09",
      "coordinate_source": "pfinal_city_region_sql_bd09ll_converted",
      "aliases": [
        "北京丰台区",
        "北京市丰台区"
      ]
    },
    {
      "province": "北京市",
      "city": "北京市",
      "district": "石景山区",
      "name": "石景山区",
      "full_name": "北京市石景山区",
      "display_name": "北京市石景山区",
      "adcode": "110107",
      "lat": 39.904471,
      "lon": 116.216945,
      "level": "district",
      "coordinate_system": "WGS84_APPROX_FROM_BD09",
      "coordinate_source": "pfinal_city_region_sql_bd09ll_converted",
      "aliases": [
        "北京市石景山区",
        "北京石景山区"
      ]
    },
    {
      "province": "北京市",
      "city": "北京市",
      "district": "海淀区",
      "name": "海淀区",
      "full_name": "北京市海淀区",
      "display_name": "北京市海淀区",
      "adcode": "110108",
      "lat": 39.958038,
      "lon": 116.292922,
      "level": "district",
      "coordinate_system": "WGS84_APPROX_FROM_BD09",
      "coordinate_source": "pfinal_city_region_sql_bd09ll_converted",
      "aliases": [
        "北京市海淀区",
        "北京海淀区"
      ]
    },
    {
      "province": "北京市",
      "city": "北京市",
      "district": "门头沟区",
      "name": "门头沟区",
      "full_name": "北京市门头沟区",
      "display_name": "北京市门头沟区",
      "adcode": "110109",
      "lat": 39.939102,
      "lon": 116.094673,
      "level": "district",
      "coordinate_system": "WGS84_APPROX_FROM_BD09",
      "coordinate_source": "pfinal_city_region_sql_bd09ll_converted",
      "aliases": [
        "北京市门头沟区",
        "北京门头沟区"
      ]
    },
    {
      "province": "北京市",
      "city": "北京市",
      "district": "房山区",
      "name": "房山区",
      "full_name": "北京市房山区",
      "display_name": "北京市房山区",
      "adcode": "110111",
      "lat": 39.746753,
      "lon": 116.136765,
      "level": "district",
      "coordinate_system": "WGS84_APPROX_FROM_BD09",
      "coordinate_source": "pfinal_city_region_sql_bd09ll_converted",
      "aliases": [
        "北京市房山区",
        "北京房山区"
      ]
    },
    {
      "province": "北京市",
      "city": "北京市",
      "district": "通州区",
      "name": "通州区",
      "full_name": "北京市通州区",
      "display_name": "北京市通州区",
      "adcode": "110112",
      "lat": 39.908696,
      "lon": 116.651114,
      "level": "district",
      "coordinate_system": "WGS84_APPROX_FROM_BD09",
      "coordinate_source": "pfinal_city_region_sql_bd09ll_converted",
      "aliases": [
        "北京市通州区",
        "北京通州区"
      ]
    },
    {
      "province": "北京市",
      "city": "北京市",
      "district": "顺义区",
      "name": "顺义区",
      "full_name": "北京市顺义区",
      "display_name": "北京市顺义区",
      "adcode": "110113",
      "lat": 40.128988,
      "lon": 116.649093,
      "level": "district",
      "coordinate_system": "WGS84_APPROX_FROM_BD09",
      "coordinate_source": "pfinal_city_region_sql_bd09ll_converted",
      "aliases": [
        "北京市顺义区",
        "北京顺义区"
      ]
    },
    {
      "province": "北京市",
      "city": "北京市",
      "district": "昌平区",
      "name": "昌平区",
      "full_name": "北京市昌平区",
      "display_name": "北京市昌平区",
      "adcode": "110114",
      "lat": 40.219454,
      "lon": 116.224918,
      "level": "district",
      "coordinate_system": "WGS84_APPROX_FROM_BD09",
      "coordinate_source": "pfinal_city_region_sql_bd09ll_converted",
      "aliases": [
        "北京市昌平区",
        "北京昌平区"
      ]
    },
    {
      "province": "北京市",
      "city": "北京市",
      "district": "大兴区",
      "name": "大兴区",
      "full_name": "北京市大兴区",
      "display_name": "北京市大兴区",
      "adcode": "110115",
      "lat": 39.725576,
      "lon": 116.335857,
      "level": "district",
      "coordinate_system": "WGS84_APPROX_FROM_BD09",
      "coordinate_source": "pfinal_city_region_sql_bd09ll_converted",
      "aliases": [
        "北京大兴区",
        "北京市大兴区"
      ]
    },
    {
      "province": "北京市",
      "city": "北京市",
      "district": "怀柔区",
      "name": "怀柔区",
      "full_name": "北京市怀柔区",
      "display_name": "北京市怀柔区",
      "adcode": "110116",
      "lat": 40.315195,
      "lon": 116.626123,
      "level": "district",
      "coordinate_system": "WGS84_APPROX_FROM_BD09",
      "coordinate_source": "pfinal_city_region_sql_bd09ll_converted",
      "aliases": [
        "北京市怀柔区",
        "北京怀柔区"
      ]
    },
    {
      "province": "北京市",
      "city": "北京市",
      "district": "平谷区",
      "name": "平谷区",
      "full_name": "北京市平谷区",
      "display_name": "北京市平谷区",
      "adcode": "110117",
      "lat": 40.139178,
      "lon": 117.11444,
      "level": "district",
      "coordinate_system": "WGS84_APPROX_FROM_BD09",
      "coordinate_source": "pfinal_city_region_sql_bd09ll_converted",
      "aliases": [
        "北京市平谷区",
        "北京平谷区"
      ]
    },
    {
      "province": "北京市",
      "city": "北京市",
      "district": "密云区",
      "name": "密云区",
      "full_name": "北京市密云区",
      "display_name": "北京市密云区",
      "adcode": "110118",
      "lat": 40.516197,
      "lon": 116.907906,
      "level": "district",
      "coordinate_system": "WGS84_APPROX_FROM_BD09",
      "coordinate_source": "pfinal_city_region_sql_bd09ll_converted",
      "aliases": [
        "北京密云区",
        "北京市密云区"
      ]
    },
    {
      "province": "北京市",
      "city": "北京市",
      "district": "延庆区",
      "name": "延庆区",
      "full_name": "北京市延庆区",
      "display_name": "北京市延庆区",
      "adcode": "110119",
      "lat": 40.431765,
      "lon": 115.978578,
      "level": "district",
      "coordinate_system": "WGS84_APPROX_FROM_BD09",
      "coordinate_source": "pfinal_city_region_sql_bd09ll_converted",
      "aliases": [
        "北京市延庆区",
        "北京延庆区"
      ]
    },
    {
      "province": "天津市",
      "city": "天津市",
      "district": "和平区",
      "name": "和平区",
      "full_name": "天津市和平区",
      "display_name": "天津市和平区",
      "adcode": "120101",
      "lat": 39.116294,
      "lon": 117.208716,
      "level": "district",
      "coordinate_system": "WGS84_APPROX_FROM_BD09",
      "coordinate_source": "pfinal_city_region_sql_bd09ll_converted",
      "aliases": [
        "天津和平区",
        "天津市和平区"
      ]
    },
    {
      "province": "天津市",
      "city": "天津市",
      "district": "河东区",
      "name": "河东区",
      "full_name": "天津市河东区",
      "display_name": "天津市河东区",
      "adcode": "120102",
      "lat": 39.127207,
      "lon": 117.245726,
      "level": "district",
      "coordinate_system": "WGS84_APPROX_FROM_BD09",
      "coordinate_source": "pfinal_city_region_sql_bd09ll_converted",
      "aliases": [
        "天津市河东区",
        "天津河东区"
      ]
    },
    {
      "province": "天津市",
      "city": "天津市",
      "district": "河西区",
      "name": "河西区",
      "full_name": "天津市河西区",
      "display_name": "天津市河西区",
      "adcode": "120103",
      "lat": 39.108508,
      "lon": 117.216724,
      "level": "district",
      "coordinate_system": "WGS84_APPROX_FROM_BD09",
      "coordinate_source": "pfinal_city_region_sql_bd09ll_converted",
      "aliases": [
        "天津市河西区",
        "天津河西区"
      ]
    },
    {
      "province": "天津市",
      "city": "天津市",
      "district": "南开区",
      "name": "南开区",
      "full_name": "天津市南开区",
      "display_name": "天津市南开区",
      "adcode": "120104",
      "lat": 39.136971,
      "lon": 117.143605,
      "level": "district",
      "coordinate_system": "WGS84_APPROX_FROM_BD09",
      "coordinate_source": "pfinal_city_region_sql_bd09ll_converted",
      "aliases": [
        "天津南开区",
        "天津市南开区"
      ]
    },
    {
      "province": "天津市",
      "city": "天津市",
      "district": "河北区",
      "name": "河北区",
      "full_name": "天津市河北区",
      "display_name": "天津市河北区",
      "adcode": "120105",
      "lat": 39.146648,
      "lon": 117.190689,
      "level": "district",
      "coordinate_system": "WGS84_APPROX_FROM_BD09",
      "coordinate_source": "pfinal_city_region_sql_bd09ll_converted",
      "aliases": [
        "天津市河北区",
        "天津河北区"
      ]
    },
    {
      "province": "天津市",
      "city": "天津市",
      "district": "红桥区",
      "name": "红桥区",
      "full_name": "天津市红桥区",
      "display_name": "天津市红桥区",
      "adcode": "120106",
      "lat": 39.166155,
      "lon": 117.144603,
      "level": "district",
      "coordinate_system": "WGS84_APPROX_FROM_BD09",
      "coordinate_source": "pfinal_city_region_sql_bd09ll_converted",
      "aliases": [
        "天津市红桥区",
        "天津红桥区"
      ]
    },
    {
      "province": "天津市",
      "city": "天津市",
      "district": "东丽区",
      "name": "东丽区",
      "full_name": "天津市东丽区",
      "display_name": "天津市东丽区",
      "adcode": "120110",
      "lat": 39.085564,
      "lon": 117.307618,
      "level": "district",
      "coordinate_system": "WGS84_APPROX_FROM_BD09",
      "coordinate_source": "pfinal_city_region_sql_bd09ll_converted",
      "aliases": [
        "天津东丽区",
        "天津市东丽区"
      ]
    },
    {
      "province": "天津市",
      "city": "天津市",
      "district": "西青区",
      "name": "西青区",
      "full_name": "天津市西青区",
      "display_name": "天津市西青区",
      "adcode": "120111",
      "lat": 39.14138,
      "lon": 117.001831,
      "level": "district",
      "coordinate_system": "WGS84_APPROX_FROM_BD09",
      "coordinate_source": "pfinal_city_region_sql_bd09ll_converted",
      "aliases": [
        "天津市西青区",
        "天津西青区"
      ]
    },
    {
      "province": "天津市",
      "city": "天津市",
      "district": "津南区",
      "name": "津南区",
      "full_name": "天津市津南区",
      "display_name": "天津市津南区",
      "adcode": "120112",
      "lat": 38.936777,
      "lon": 117.350522,
      "level": "district",
      "coordinate_system": "WGS84_APPROX_FROM_BD09",
      "coordinate_source": "pfinal_city_region_sql_bd09ll_converted",
      "aliases": [
        "天津市津南区",
        "天津津南区"
      ]
    },
    {
      "province": "天津市",
      "city": "天津市",
      "district": "北辰区",
      "name": "北辰区",
      "full_name": "天津市北辰区",
      "display_name": "天津市北辰区",
      "adcode": "120113",
      "lat": 39.222896,
      "lon": 117.128573,
      "level": "district",
      "coordinate_system": "WGS84_APPROX_FROM_BD09",
      "coordinate_source": "pfinal_city_region_sql_bd09ll_converted",
      "aliases": [
        "天津北辰区",
        "天津市北辰区"
      ]
    },
    {
      "province": "天津市",
      "city": "天津市",
      "district": "武清区",
      "name": "武清区",
      "full_name": "天津市武清区",
      "display_name": "天津市武清区",
      "adcode": "120114",
      "lat": 39.382856,
      "lon": 117.037653,
      "level": "district",
      "coordinate_system": "WGS84_APPROX_FROM_BD09",
      "coordinate_source": "pfinal_city_region_sql_bd09ll_converted",
      "aliases": [
        "天津市武清区",
        "天津武清区"
      ]
    },
    {
      "province": "天津市",
      "city": "天津市",
      "district": "宝坻区",
      "name": "宝坻区",
      "full_name": "天津市宝坻区",
      "display_name": "天津市宝坻区",
      "adcode": "120115",
      "lat": 39.716214,
      "lon": 117.303548,
      "level": "district",
      "coordinate_system": "WGS84_APPROX_FROM_BD09",
      "coordinate_source": "pfinal_city_region_sql_bd09ll_converted",
      "aliases": [
        "天津宝坻区",
        "天津市宝坻区"
      ]
    },
    {
      "province": "天津市",
      "city": "天津市",
      "district": "滨海新区",
      "name": "滨海新区",
      "full_name": "天津市滨海新区",
      "display_name": "天津市滨海新区",
      "adcode": "120116",
      "lat": 39.002203,
      "lon": 117.704724,
      "level": "district",
      "coordinate_system": "WGS84_APPROX_FROM_BD09",
      "coordinate_source": "pfinal_city_region_sql_bd09ll_converted",
      "aliases": [
        "天津市滨海新区",
        "天津滨海新区"
      ]
    },
    {
      "province": "天津市",
      "city": "天津市",
      "district": "宁河区",
      "name": "宁河区",
      "full_name": "天津市宁河区",
      "display_name": "天津市宁河区",
      "adcode": "120117",
      "lat": 39.329674,
      "lon": 117.819801,
      "level": "district",
      "coordinate_system": "WGS84_APPROX_FROM_BD09",
      "coordinate_source": "pfinal_city_region_sql_bd09ll_converted",
      "aliases": [
        "天津宁河区",
        "天津市宁河区"
      ]
    },
    {
      "province": "天津市",
      "city": "天津市",
      "district": "静海区",
      "name": "静海区",
      "full_name": "天津市静海区",
      "display_name": "天津市静海区",
      "adcode": "120118",
      "lat": 38.946502,
      "lon": 116.968005,
      "level": "district",
      "coordinate_system": "WGS84_APPROX_FROM_BD09",
      "coordinate_source": "pfinal_city_region_sql_bd09ll_converted",
      "aliases": [
        "天津市静海区",
        "天津静海区"
      ]
    },
    {
      "province": "天津市",
      "city": "天津市",
      "district": "蓟州区",
      "name": "蓟州区",
      "full_name": "天津市蓟州区",
      "display_name": "天津市蓟州区",
      "adcode": "120119",
      "lat": 40.04048,
      "lon": 117.40015,
      "level": "district",
      "coordinate_system": "WGS84_APPROX_FROM_BD09",
      "coordinate_source": "pfinal_city_region_sql_bd09ll_converted",
      "aliases": [
        "天津市蓟州区",
        "天津蓟州区"
      ]
    },
    {
      "province": "河北省",
      "city": "石家庄市",
      "district": "",
      "name": "石家庄市",
      "full_name": "河北省石家庄市",
      "display_name": "石家庄市",
      "adcode": "1301",
      "lat": 38.045118,
      "lon": 114.456402,
      "level": "city",
      "coordinate_system": "WGS84_APPROX_FROM_BD09",
      "coordinate_source": "pfinal_city_region_sql_bd09ll_converted",
      "aliases": [
        "石家庄"
      ]
    },
    {
      "province": "河北省",
      "city": "石家庄市",
      "district": "长安区",
      "name": "长安区",
      "full_name": "河北省石家庄市长安区",
      "display_name": "石家庄市长安区",
      "adcode": "130102",
      "lat": 38.037045,
      "lon": 114.533117,
      "level": "district",
      "coordinate_system": "WGS84_APPROX_FROM_BD09",
      "coordinate_source": "pfinal_city_region_sql_bd09ll_converted",
      "aliases": [
        "石家庄市长安区",
        "石家庄长安区"
      ]
    },
    {
      "province": "河北省",
      "city": "石家庄市",
      "district": "桥西区",
      "name": "桥西区",
      "full_name": "河北省石家庄市桥西区",
      "display_name": "石家庄市桥西区",
      "adcode": "130104",
      "lat": 38.003421,
      "lon": 114.454816,
      "level": "district",
      "coordinate_system": "WGS84_APPROX_FROM_BD09",
      "coordinate_source": "pfinal_city_region_sql_bd09ll_converted",
      "aliases": [
        "石家庄市桥西区",
        "石家庄桥西区"
      ]
    },
    {
      "province": "河北省",
      "city": "石家庄市",
      "district": "新华区",
      "name": "新华区",
      "full_name": "河北省石家庄市新华区",
      "display_name": "石家庄市新华区",
      "adcode": "130105",
      "lat": 38.050135,
      "lon": 114.456817,
      "level": "district",
      "coordinate_system": "WGS84_APPROX_FROM_BD09",
      "coordinate_source": "pfinal_city_region_sql_bd09ll_converted",
      "aliases": [
        "石家庄市新华区",
        "石家庄新华区"
      ]
    },
    {
      "province": "河北省",
      "city": "石家庄市",
      "district": "井陉矿区",
      "name": "井陉矿区",
      "full_name": "河北省石家庄市井陉矿区",
      "display_name": "石家庄市井陉矿区",
      "adcode": "130107",
      "lat": 38.064094,
      "lon": 114.055486,
      "level": "district",
      "coordinate_system": "WGS84_APPROX_FROM_BD09",
      "coordinate_source": "pfinal_city_region_sql_bd09ll_converted",
      "aliases": [
        "石家庄井陉矿区",
        "石家庄市井陉矿区"
      ]
    },
    {
      "province": "河北省",
      "city": "石家庄市",
      "district": "裕华区",
      "name": "裕华区",
      "full_name": "河北省石家庄市裕华区",
      "display_name": "石家庄市裕华区",
      "adcode": "130108",
      "lat": 38.005819,
      "lon": 114.525092,
      "level": "district",
      "coordinate_system": "WGS84_APPROX_FROM_BD09",
      "coordinate_source": "pfinal_city_region_sql_bd09ll_converted",
      "aliases": [
        "石家庄市裕华区",
        "石家庄裕华区"
      ]
    },
    {
      "province": "河北省",
      "city": "石家庄市",
      "district": "藁城区",
      "name": "藁城区",
      "full_name": "河北省石家庄市藁城区",
      "display_name": "石家庄市藁城区",
      "adcode": "130109",
      "lat": 38.020953,
      "lon": 114.841161,
      "level": "district",
      "coordinate_system": "WGS84_APPROX_FROM_BD09",
      "coordinate_source": "pfinal_city_region_sql_bd09ll_converted",
      "aliases": [
        "石家庄市藁城区",
        "石家庄藁城区"
      ]
    },
    {
      "province": "河北省",
      "city": "石家庄市",
      "district": "鹿泉区",
      "name": "鹿泉区",
      "full_name": "河北省石家庄市鹿泉区",
      "display_name": "石家庄市鹿泉区",
      "adcode": "130110",
      "lat": 38.085281,
      "lon": 114.307784,
      "level": "district",
      "coordinate_system": "WGS84_APPROX_FROM_BD09",
      "coordinate_source": "pfinal_city_region_sql_bd09ll_converted",
      "aliases": [
        "石家庄市鹿泉区",
        "石家庄鹿泉区"
      ]
    },
    {
      "province": "河北省",
      "city": "石家庄市",
      "district": "栾城区",
      "name": "栾城区",
      "full_name": "河北省石家庄市栾城区",
      "display_name": "石家庄市栾城区",
      "adcode": "130111",
      "lat": 37.899543,
      "lon": 114.642189,
      "level": "district",
      "coordinate_system": "WGS84_APPROX_FROM_BD09",
      "coordinate_source": "pfinal_city_region_sql_bd09ll_converted",
      "aliases": [
        "石家庄市栾城区",
        "石家庄栾城区"
      ]
    },
    {
      "province": "河北省",
      "city": "石家庄市",
      "district": "井陉县",
      "name": "井陉县",
      "full_name": "河北省石家庄市井陉县",
      "display_name": "石家庄市井陉县",
      "adcode": "130121",
      "lat": 38.031499,
      "lon": 114.138575,
      "level": "district",
      "coordinate_system": "WGS84_APPROX_FROM_BD09",
      "coordinate_source": "pfinal_city_region_sql_bd09ll_converted",
      "aliases": [
        "石家庄井陉县",
        "石家庄市井陉县"
      ]
    },
    {
      "province": "河北省",
      "city": "石家庄市",
      "district": "正定县",
      "name": "正定县",
      "full_name": "河北省石家庄市正定县",
      "display_name": "石家庄市正定县",
      "adcode": "130123",
      "lat": 38.145225,
      "lon": 114.565187,
      "level": "district",
      "coordinate_system": "WGS84_APPROX_FROM_BD09",
      "coordinate_source": "pfinal_city_region_sql_bd09ll_converted",
      "aliases": [
        "石家庄市正定县",
        "石家庄正定县"
      ]
    },
    {
      "province": "河北省",
      "city": "石家庄市",
      "district": "行唐县",
      "name": "行唐县",
      "full_name": "河北省石家庄市行唐县",
      "display_name": "石家庄市行唐县",
      "adcode": "130125",
      "lat": 38.438013,
      "lon": 114.547114,
      "level": "district",
      "coordinate_system": "WGS84_APPROX_FROM_BD09",
      "coordinate_source": "pfinal_city_region_sql_bd09ll_converted",
      "aliases": [
        "石家庄市行唐县",
        "石家庄行唐县"
      ]
    },
    {
      "province": "河北省",
      "city": "石家庄市",
      "district": "灵寿县",
      "name": "灵寿县",
      "full_name": "河北省石家庄市灵寿县",
      "display_name": "石家庄市灵寿县",
      "adcode": "130126",
      "lat": 38.307702,
      "lon": 114.376658,
      "level": "district",
      "coordinate_system": "WGS84_APPROX_FROM_BD09",
      "coordinate_source": "pfinal_city_region_sql_bd09ll_converted",
      "aliases": [
        "石家庄市灵寿县",
        "石家庄灵寿县"
      ]
    },
    {
      "province": "河北省",
      "city": "石家庄市",
      "district": "高邑县",
      "name": "高邑县",
      "full_name": "河北省石家庄市高邑县",
      "display_name": "石家庄市高邑县",
      "adcode": "130127",
      "lat": 37.615062,
      "lon": 114.606271,
      "level": "district",
      "coordinate_system": "WGS84_APPROX_FROM_BD09",
      "coordinate_source": "pfinal_city_region_sql_bd09ll_converted",
      "aliases": [
        "石家庄市高邑县",
        "石家庄高邑县"
      ]
    },
    {
      "province": "河北省",
      "city": "石家庄市",
      "district": "深泽县",
      "name": "深泽县",
      "full_name": "河北省石家庄市深泽县",
      "display_name": "石家庄市深泽县",
      "adcode": "130128",
      "lat": 38.183407,
      "lon": 115.194855,
      "level": "district",
      "coordinate_system": "WGS84_APPROX_FROM_BD09",
      "coordinate_source": "pfinal_city_region_sql_bd09ll_converted",
      "aliases": [
        "石家庄市深泽县",
        "石家庄深泽县"
      ]
    },
    {
      "province": "河北省",
      "city": "石家庄市",
      "district": "赞皇县",
      "name": "赞皇县",
      "full_name": "河北省石家庄市赞皇县",
      "display_name": "石家庄市赞皇县",
      "adcode": "130129",
      "lat": 37.664705,
      "lon": 114.379733,
      "level": "district",
      "coordinate_system": "WGS84_APPROX_FROM_BD09",
      "coordinate_source": "pfinal_city_region_sql_bd09ll_converted",
      "aliases": [
        "石家庄市赞皇县",
        "石家庄赞皇县"
      ]
    },
    {
      "province": "河北省",
      "city": "石家庄市",
      "district": "无极县",
      "name": "无极县",
      "full_name": "河北省石家庄市无极县",
      "display_name": "石家庄市无极县",
      "adcode": "130130",
      "lat": 38.178623,
      "lon": 114.970046,
      "level": "district",
      "coordinate_system": "WGS84_APPROX_FROM_BD09",
      "coordinate_source": "pfinal_city_region_sql_bd09ll_converted",
      "aliases": [
        "石家庄市无极县",
        "石家庄无极县"
      ]
    },
    {
      "province": "河北省",
      "city": "石家庄市",
      "district": "平山县",
      "name": "平山县",
      "full_name": "河北省石家庄市平山县",
      "display_name": "石家庄市平山县",
      "adcode": "130131",
      "lat": 38.265248,
      "lon": 113.972669,
      "level": "district",
      "coordinate_system": "WGS84_APPROX_FROM_BD09",
      "coordinate_source": "pfinal_city_region_sql_bd09ll_converted",
      "aliases": [
        "石家庄市平山县",
        "石家庄平山县"
      ]
    },
    {
      "province": "河北省",
      "city": "石家庄市",
      "district": "元氏县",
      "name": "元氏县",
      "full_name": "河北省石家庄市元氏县",
      "display_name": "石家庄市元氏县",
      "adcode": "130132",
      "lat": 37.765964,
      "lon": 114.520101,
      "level": "district",
      "coordinate_system": "WGS84_APPROX_FROM_BD09",
      "coordinate_source": "pfinal_city_region_sql_bd09ll_converted",
      "aliases": [
        "石家庄元氏县",
        "石家庄市元氏县"
      ]
    },
    {
      "province": "河北省",
      "city": "石家庄市",
      "district": "赵县",
      "name": "赵县",
      "full_name": "河北省石家庄市赵县",
      "display_name": "石家庄市赵县",
      "adcode": "130133",
      "lat": 37.755494,
      "lon": 114.77005,
      "level": "district",
      "coordinate_system": "WGS84_APPROX_FROM_BD09",
      "coordinate_source": "pfinal_city_region_sql_bd09ll_converted",
      "aliases": [
        "石家庄市赵县",
        "石家庄赵县"
      ]
    },
    {
      "province": "河北省",
      "city": "石家庄市",
      "district": "辛集市",
      "name": "辛集市",
      "full_name": "河北省石家庄市辛集市",
      "display_name": "石家庄市辛集市",
      "adcode": "130181",
      "lat": 37.942381,
      "lon": 115.21191,
      "level": "district",
      "coordinate_system": "WGS84_APPROX_FROM_BD09",
      "coordinate_source": "pfinal_city_region_sql_bd09ll_converted",
      "aliases": [
        "石家庄市辛集市",
        "石家庄辛集市"
      ]
    },
    {
      "province": "河北省",
      "city": "石家庄市",
      "district": "晋州市",
      "name": "晋州市",
      "full_name": "河北省石家庄市晋州市",
      "display_name": "石家庄市晋州市",
      "adcode": "130183",
      "lat": 38.032802,
      "lon": 115.037806,
      "level": "district",
      "coordinate_system": "WGS84_APPROX_FROM_BD09",
      "coordinate_source": "pfinal_city_region_sql_bd09ll_converted",
      "aliases": [
        "石家庄市晋州市",
        "石家庄晋州市"
      ]
    },
    {
      "province": "河北省",
      "city": "石家庄市",
      "district": "新乐市",
      "name": "新乐市",
      "full_name": "河北省石家庄市新乐市",
      "display_name": "石家庄市新乐市",
      "adcode": "130184",
      "lat": 38.342845,
      "lon": 114.678058,
      "level": "district",
      "coordinate_system": "WGS84_APPROX_FROM_BD09",
      "coordinate_source": "pfinal_city_region_sql_bd09ll_converted",
      "aliases": [
        "石家庄市新乐市",
        "石家庄新乐市"
      ]
    },
    {
      "province": "河北省",
      "city": "石家庄市",
      "district": "石家庄高新技术产业开发区",
      "name": "石家庄高新技术产业开发区",
      "full_name": "河北省石家庄市石家庄高新技术产业开发区",
      "display_name": "石家庄市石家庄高新技术产业开发区",
      "adcode": "130171",
      "lat": 38.041893,
      "lon": 114.642346,
      "level": "district",
      "coordinate_system": "WGS84_APPROX_FROM_BD09",
      "coordinate_source": "pfinal_city_region_sql_bd09ll_converted",
      "aliases": [
        "石家庄市石家庄高新技术产业开发区",
        "石家庄石家庄高新技术产业开发区"
      ]
    },
    {
      "province": "河北省",
      "city": "石家庄市",
      "district": "石家庄循环化工园区",
      "name": "石家庄循环化工园区",
      "full_name": "河北省石家庄市石家庄循环化工园区",
      "display_name": "石家庄市石家庄循环化工园区",
      "adcode": "130172",
      "lat": 37.996119,
      "lon": 114.687527,
      "level": "district",
      "coordinate_system": "WGS84_APPROX_FROM_BD09",
      "coordinate_source": "pfinal_city_region_sql_bd09ll_converted",
      "aliases": [
        "石家庄市石家庄循环化工园区",
        "石家庄石家庄循环化工园区"
      ]
    },
    {
      "province": "河北省",
      "city": "唐山市",
      "district": "",
      "name": "唐山市",
      "full_name": "河北省唐山市",
      "display_name": "唐山市",
      "adcode": "1302",
      "lat": 39.629093,
      "lon": 118.173721,
      "level": "city",
      "coordinate_system": "WGS84_APPROX_FROM_BD09",
      "coordinate_source": "pfinal_city_region_sql_bd09ll_converted",
      "aliases": [
        "唐山"
      ]
    },
    {
      "province": "河北省",
      "city": "唐山市",
      "district": "路南区",
      "name": "路南区",
      "full_name": "河北省唐山市路南区",
      "display_name": "唐山市路南区",
      "adcode": "130202",
      "lat": 39.623944,
      "lon": 118.147647,
      "level": "district",
      "coordinate_system": "WGS84_APPROX_FROM_BD09",
      "coordinate_source": "pfinal_city_region_sql_bd09ll_converted",
      "aliases": [
        "唐山市路南区",
        "唐山路南区"
      ]
    },
    {
      "province": "河北省",
      "city": "唐山市",
      "district": "路北区",
      "name": "路北区",
      "full_name": "河北省唐山市路北区",
      "display_name": "唐山市路北区",
      "adcode": "130203",
      "lat": 39.623028,
      "lon": 118.193778,
      "level": "district",
      "coordinate_system": "WGS84_APPROX_FROM_BD09",
      "coordinate_source": "pfinal_city_region_sql_bd09ll_converted",
      "aliases": [
        "唐山市路北区",
        "唐山路北区"
      ]
    },
    {
      "province": "河北省",
      "city": "唐山市",
      "district": "古冶区",
      "name": "古冶区",
      "full_name": "河北省唐山市古冶区",
      "display_name": "唐山市古冶区",
      "adcode": "130204",
      "lat": 39.732007,
      "lon": 118.440734,
      "level": "district",
      "coordinate_system": "WGS84_APPROX_FROM_BD09",
      "coordinate_source": "pfinal_city_region_sql_bd09ll_converted",
      "aliases": [
        "唐山古冶区",
        "唐山市古冶区"
      ]
    },
    {
      "province": "河北省",
      "city": "唐山市",
      "district": "开平区",
      "name": "开平区",
      "full_name": "河北省唐山市开平区",
      "display_name": "唐山市开平区",
      "adcode": "130205",
      "lat": 39.670258,
      "lon": 118.255853,
      "level": "district",
      "coordinate_system": "WGS84_APPROX_FROM_BD09",
      "coordinate_source": "pfinal_city_region_sql_bd09ll_converted",
      "aliases": [
        "唐山市开平区",
        "唐山开平区"
      ]
    },
    {
      "province": "河北省",
      "city": "唐山市",
      "district": "丰南区",
      "name": "丰南区",
      "full_name": "河北省唐山市丰南区",
      "display_name": "唐山市丰南区",
      "adcode": "130207",
      "lat": 39.573804,
      "lon": 118.077547,
      "level": "district",
      "coordinate_system": "WGS84_APPROX_FROM_BD09",
      "coordinate_source": "pfinal_city_region_sql_bd09ll_converted",
      "aliases": [
        "唐山丰南区",
        "唐山市丰南区"
      ]
    },
    {
      "province": "河北省",
      "city": "唐山市",
      "district": "丰润区",
      "name": "丰润区",
      "full_name": "河北省唐山市丰润区",
      "display_name": "唐山市丰润区",
      "adcode": "130208",
      "lat": 39.831132,
      "lon": 118.155642,
      "level": "district",
      "coordinate_system": "WGS84_APPROX_FROM_BD09",
      "coordinate_source": "pfinal_city_region_sql_bd09ll_converted",
      "aliases": [
        "唐山丰润区",
        "唐山市丰润区"
      ]
    },
    {
      "province": "河北省",
      "city": "唐山市",
      "district": "曹妃甸区",
      "name": "曹妃甸区",
      "full_name": "河北省唐山市曹妃甸区",
      "display_name": "唐山市曹妃甸区",
      "adcode": "130209",
      "lat": 39.271886,
      "lon": 118.453833,
      "level": "district",
      "coordinate_system": "WGS84_APPROX_FROM_BD09",
      "coordinate_source": "pfinal_city_region_sql_bd09ll_converted",
      "aliases": [
        "唐山市曹妃甸区",
        "唐山曹妃甸区"
      ]
    },
    {
      "province": "河北省",
      "city": "唐山市",
      "district": "滦南县",
      "name": "滦南县",
      "full_name": "河北省唐山市滦南县",
      "display_name": "唐山市滦南县",
      "adcode": "130224",
      "lat": 39.502584,
      "lon": 118.668089,
      "level": "district",
      "coordinate_system": "WGS84_APPROX_FROM_BD09",
      "coordinate_source": "pfinal_city_region_sql_bd09ll_converted",
      "aliases": [
        "唐山市滦南县",
        "唐山滦南县"
      ]
    },
    {
      "province": "河北省",
      "city": "唐山市",
      "district": "乐亭县",
      "name": "乐亭县",
      "full_name": "河北省唐山市乐亭县",
      "display_name": "唐山市乐亭县",
      "adcode": "130225",
      "lat": 39.4246,
      "lon": 118.907196,
      "level": "district",
      "coordinate_system": "WGS84_APPROX_FROM_BD09",
      "coordinate_source": "pfinal_city_region_sql_bd09ll_converted",
      "aliases": [
        "唐山乐亭县",
        "唐山市乐亭县"
      ]
    },
    {
      "province": "河北省",
      "city": "唐山市",
      "district": "迁西县",
      "name": "迁西县",
      "full_name": "河北省唐山市迁西县",
      "display_name": "唐山市迁西县",
      "adcode": "130227",
      "lat": 40.140157,
      "lon": 118.307731,
      "level": "district",
      "coordinate_system": "WGS84_APPROX_FROM_BD09",
      "coordinate_source": "pfinal_city_region_sql_bd09ll_converted",
      "aliases": [
        "唐山市迁西县",
        "唐山迁西县"
      ]
    },
    {
      "province": "河北省",
      "city": "唐山市",
      "district": "玉田县",
      "name": "玉田县",
      "full_name": "河北省唐山市玉田县",
      "display_name": "唐山市玉田县",
      "adcode": "130229",
      "lat": 39.899152,
      "lon": 117.732585,
      "level": "district",
      "coordinate_system": "WGS84_APPROX_FROM_BD09",
      "coordinate_source": "pfinal_city_region_sql_bd09ll_converted",
      "aliases": [
        "唐山市玉田县",
        "唐山玉田县"
      ]
    },
    {
      "province": "河北省",
      "city": "唐山市",
      "district": "遵化市",
      "name": "遵化市",
      "full_name": "河北省唐山市遵化市",
      "display_name": "唐山市遵化市",
      "adcode": "130281",
      "lat": 40.188023,
      "lon": 117.959765,
      "level": "district",
      "coordinate_system": "WGS84_APPROX_FROM_BD09",
      "coordinate_source": "pfinal_city_region_sql_bd09ll_converted",
      "aliases": [
        "唐山市遵化市",
        "唐山遵化市"
      ]
    },
    {
      "province": "河北省",
      "city": "唐山市",
      "district": "迁安市",
      "name": "迁安市",
      "full_name": "河北省唐山市迁安市",
      "display_name": "唐山市迁安市",
      "adcode": "130283",
      "lat": 39.996768,
      "lon": 118.693967,
      "level": "district",
      "coordinate_system": "WGS84_APPROX_FROM_BD09",
      "coordinate_source": "pfinal_city_region_sql_bd09ll_converted",
      "aliases": [
        "唐山市迁安市",
        "唐山迁安市"
      ]
    },
    {
      "province": "河北省",
      "city": "唐山市",
      "district": "滦州市",
      "name": "滦州市",
      "full_name": "河北省唐山市滦州市",
      "display_name": "唐山市滦州市",
      "adcode": "130284",
      "lat": 39.739778,
      "lon": 118.697991,
      "level": "district",
      "coordinate_system": "WGS84_APPROX_FROM_BD09",
      "coordinate_source": "pfinal_city_region_sql_bd09ll_converted",
      "aliases": [
        "唐山市滦州市",
        "唐山滦州市"
      ]
    },
    {
      "province": "河北省",
      "city": "唐山市",
      "district": "河北唐山芦台经济开发区",
      "name": "河北唐山芦台经济开发区",
      "full_name": "河北省唐山市河北唐山芦台经济开发区",
      "display_name": "唐山市河北唐山芦台经济开发区",
      "adcode": "130271",
      "lat": 39.629093,
      "lon": 118.173721,
      "level": "district",
      "coordinate_system": "WGS84_APPROX_FROM_BD09",
      "coordinate_source": "pfinal_city_region_sql_bd09ll_converted",
      "aliases": [
        "唐山市河北唐山芦台经济开发区",
        "唐山河北唐山芦台经济开发区"
      ]
    },
    {
      "province": "河北省",
      "city": "唐山市",
      "district": "唐山市汉沽管理区",
      "name": "唐山市汉沽管理区",
      "full_name": "河北省唐山市唐山市汉沽管理区",
      "display_name": "唐山市唐山市汉沽管理区",
      "adcode": "130272",
      "lat": 39.629093,
      "lon": 118.173721,
      "level": "district",
      "coordinate_system": "WGS84_APPROX_FROM_BD09",
      "coordinate_source": "pfinal_city_region_sql_bd09ll_converted",
      "aliases": [
        "唐山唐山市汉沽管理区",
        "唐山市唐山市汉沽管理区"
      ]
    },
    {
      "province": "河北省",
      "city": "唐山市",
      "district": "唐山高新技术产业开发区",
      "name": "唐山高新技术产业开发区",
      "full_name": "河北省唐山市唐山高新技术产业开发区",
      "display_name": "唐山市唐山高新技术产业开发区",
      "adcode": "130273",
      "lat": 39.689671,
      "lon": 118.182097,
      "level": "district",
      "coordinate_system": "WGS84_APPROX_FROM_BD09",
      "coordinate_source": "pfinal_city_region_sql_bd09ll_converted",
      "aliases": [
        "唐山唐山高新技术产业开发区",
        "唐山市唐山高新技术产业开发区"
      ]
    },
    {
      "province": "河北省",
      "city": "唐山市",
      "district": "河北唐山海港经济开发区",
      "name": "河北唐山海港经济开发区",
      "full_name": "河北省唐山市河北唐山海港经济开发区",
      "display_name": "唐山市河北唐山海港经济开发区",
      "adcode": "130274",
      "lat": 39.933289,
      "lon": 119.605231,
      "level": "district",
      "coordinate_system": "WGS84_APPROX_FROM_BD09",
      "coordinate_source": "pfinal_city_region_sql_bd09ll_converted",
      "aliases": [
        "唐山市河北唐山海港经济开发区",
        "唐山河北唐山海港经济开发区"
      ]
    },
    {
      "province": "河北省",
      "city": "秦皇岛市",
      "district": "",
      "name": "秦皇岛市",
      "full_name": "河北省秦皇岛市",
      "display_name": "秦皇岛市",
      "adcode": "1303",
      "lat": 39.934791,
      "lon": 119.59623,
      "level": "city",
      "coordinate_system": "WGS84_APPROX_FROM_BD09",
      "coordinate_source": "pfinal_city_region_sql_bd09ll_converted",
      "aliases": [
        "秦皇岛"
      ]
    },
    {
      "province": "河北省",
      "city": "秦皇岛市",
      "district": "海港区",
      "name": "海港区",
      "full_name": "河北省秦皇岛市海港区",
      "display_name": "秦皇岛市海港区",
      "adcode": "130302",
      "lat": 39.933289,
      "lon": 119.605231,
      "level": "district",
      "coordinate_system": "WGS84_APPROX_FROM_BD09",
      "coordinate_source": "pfinal_city_region_sql_bd09ll_converted",
      "aliases": [
        "秦皇岛市海港区",
        "秦皇岛海港区"
      ]
    },
    {
      "province": "河北省",
      "city": "秦皇岛市",
      "district": "山海关区",
      "name": "山海关区",
      "full_name": "河北省秦皇岛市山海关区",
      "display_name": "秦皇岛市山海关区",
      "adcode": "130303",
      "lat": 39.976913,
      "lon": 119.770132,
      "level": "district",
      "coordinate_system": "WGS84_APPROX_FROM_BD09",
      "coordinate_source": "pfinal_city_region_sql_bd09ll_converted",
      "aliases": [
        "秦皇岛山海关区",
        "秦皇岛市山海关区"
      ]
    },
    {
      "province": "河北省",
      "city": "秦皇岛市",
      "district": "北戴河区",
      "name": "北戴河区",
      "full_name": "河北省秦皇岛市北戴河区",
      "display_name": "秦皇岛市北戴河区",
      "adcode": "130304",
      "lat": 39.83377,
      "lon": 119.478883,
      "level": "district",
      "coordinate_system": "WGS84_APPROX_FROM_BD09",
      "coordinate_source": "pfinal_city_region_sql_bd09ll_converted",
      "aliases": [
        "秦皇岛北戴河区",
        "秦皇岛市北戴河区"
      ]
    },
    {
      "province": "河北省",
      "city": "秦皇岛市",
      "district": "抚宁区",
      "name": "抚宁区",
      "full_name": "河北省秦皇岛市抚宁区",
      "display_name": "秦皇岛市抚宁区",
      "adcode": "130306",
      "lat": 39.874217,
      "lon": 119.238877,
      "level": "district",
      "coordinate_system": "WGS84_APPROX_FROM_BD09",
      "coordinate_source": "pfinal_city_region_sql_bd09ll_converted",
      "aliases": [
        "秦皇岛市抚宁区",
        "秦皇岛抚宁区"
      ]
    },
    {
      "province": "河北省",
      "city": "秦皇岛市",
      "district": "青龙满族自治县",
      "name": "青龙满族自治县",
      "full_name": "河北省秦皇岛市青龙满族自治县",
      "display_name": "秦皇岛市青龙满族自治县",
      "adcode": "130321",
      "lat": 40.405585,
      "lon": 118.944006,
      "level": "district",
      "coordinate_system": "WGS84_APPROX_FROM_BD09",
      "coordinate_source": "pfinal_city_region_sql_bd09ll_converted",
      "aliases": [
        "秦皇岛市青龙满族自治县",
        "秦皇岛青龙满族自治县"
      ]
    },
    {
      "province": "河北省",
      "city": "秦皇岛市",
      "district": "昌黎县",
      "name": "昌黎县",
      "full_name": "河北省秦皇岛市昌黎县",
      "display_name": "秦皇岛市昌黎县",
      "adcode": "130322",
      "lat": 39.711323,
      "lon": 119.156754,
      "level": "district",
      "coordinate_system": "WGS84_APPROX_FROM_BD09",
      "coordinate_source": "pfinal_city_region_sql_bd09ll_converted",
      "aliases": [
        "秦皇岛市昌黎县",
        "秦皇岛昌黎县"
      ]
    },
    {
      "province": "河北省",
      "city": "秦皇岛市",
      "district": "卢龙县",
      "name": "卢龙县",
      "full_name": "河北省秦皇岛市卢龙县",
      "display_name": "秦皇岛市卢龙县",
      "adcode": "130324",
      "lat": 39.890808,
      "lon": 118.887143,
      "level": "district",
      "coordinate_system": "WGS84_APPROX_FROM_BD09",
      "coordinate_source": "pfinal_city_region_sql_bd09ll_converted",
      "aliases": [
        "秦皇岛卢龙县",
        "秦皇岛市卢龙县"
      ]
    },
    {
      "province": "河北省",
      "city": "秦皇岛市",
      "district": "秦皇岛市经济技术开发区",
      "name": "秦皇岛市经济技术开发区",
      "full_name": "河北省秦皇岛市秦皇岛市经济技术开发区",
      "display_name": "秦皇岛市秦皇岛市经济技术开发区",
      "adcode": "130371",
      "lat": 39.934791,
      "lon": 119.59623,
      "level": "district",
      "coordinate_system": "WGS84_APPROX_FROM_BD09",
      "coordinate_source": "pfinal_city_region_sql_bd09ll_converted",
      "aliases": [
        "秦皇岛市秦皇岛市经济技术开发区",
        "秦皇岛秦皇岛市经济技术开发区"
      ]
    },
    {
      "province": "河北省",
      "city": "秦皇岛市",
      "district": "北戴河新区",
      "name": "北戴河新区",
      "full_name": "河北省秦皇岛市北戴河新区",
      "display_name": "秦皇岛市北戴河新区",
      "adcode": "130372",
      "lat": 39.796792,
      "lon": 119.407847,
      "level": "district",
      "coordinate_system": "WGS84_APPROX_FROM_BD09",
      "coordinate_source": "pfinal_city_region_sql_bd09ll_converted",
      "aliases": [
        "秦皇岛北戴河新区",
        "秦皇岛市北戴河新区"
      ]
    },
    {
      "province": "河北省",
      "city": "邯郸市",
      "district": "",
      "name": "邯郸市",
      "full_name": "河北省邯郸市",
      "display_name": "邯郸市",
      "adcode": "1304",
      "lat": 36.625521,
      "lon": 114.533272,
      "level": "city",
      "coordinate_system": "WGS84_APPROX_FROM_BD09",
      "coordinate_source": "pfinal_city_region_sql_bd09ll_converted",
      "aliases": [
        "邯郸"
      ]
    },
    {
      "province": "河北省",
      "city": "邯郸市",
      "district": "邯山区",
      "name": "邯山区",
      "full_name": "河北省邯郸市邯山区",
      "display_name": "邯郸市邯山区",
      "adcode": "130402",
      "lat": 36.580206,
      "lon": 114.484089,
      "level": "district",
      "coordinate_system": "WGS84_APPROX_FROM_BD09",
      "coordinate_source": "pfinal_city_region_sql_bd09ll_converted",
      "aliases": [
        "邯郸市邯山区",
        "邯郸邯山区"
      ]
    },
    {
      "province": "河北省",
      "city": "邯郸市",
      "district": "丛台区",
      "name": "丛台区",
      "full_name": "河北省邯郸市丛台区",
      "display_name": "邯郸市丛台区",
      "adcode": "130403",
      "lat": 36.636184,
      "lon": 114.487095,
      "level": "district",
      "coordinate_system": "WGS84_APPROX_FROM_BD09",
      "coordinate_source": "pfinal_city_region_sql_bd09ll_converted",
      "aliases": [
        "邯郸丛台区",
        "邯郸市丛台区"
      ]
    },
    {
      "province": "河北省",
      "city": "邯郸市",
      "district": "复兴区",
      "name": "复兴区",
      "full_name": "河北省邯郸市复兴区",
      "display_name": "邯郸市复兴区",
      "adcode": "130404",
      "lat": 36.616739,
      "lon": 114.467017,
      "level": "district",
      "coordinate_system": "WGS84_APPROX_FROM_BD09",
      "coordinate_source": "pfinal_city_region_sql_bd09ll_converted",
      "aliases": [
        "邯郸复兴区",
        "邯郸市复兴区"
      ]
    },
    {
      "province": "河北省",
      "city": "邯郸市",
      "district": "峰峰矿区",
      "name": "峰峰矿区",
      "full_name": "河北省邯郸市峰峰矿区",
      "display_name": "邯郸市峰峰矿区",
      "adcode": "130406",
      "lat": 36.419494,
      "lon": 114.206959,
      "level": "district",
      "coordinate_system": "WGS84_APPROX_FROM_BD09",
      "coordinate_source": "pfinal_city_region_sql_bd09ll_converted",
      "aliases": [
        "邯郸峰峰矿区",
        "邯郸市峰峰矿区"
      ]
    },
    {
      "province": "河北省",
      "city": "邯郸市",
      "district": "肥乡区",
      "name": "肥乡区",
      "full_name": "河北省邯郸市肥乡区",
      "display_name": "邯郸市肥乡区",
      "adcode": "130407",
      "lat": 36.547891,
      "lon": 114.794222,
      "level": "district",
      "coordinate_system": "WGS84_APPROX_FROM_BD09",
      "coordinate_source": "pfinal_city_region_sql_bd09ll_converted",
      "aliases": [
        "邯郸市肥乡区",
        "邯郸肥乡区"
      ]
    },
    {
      "province": "河北省",
      "city": "邯郸市",
      "district": "永年区",
      "name": "永年区",
      "full_name": "河北省邯郸市永年区",
      "display_name": "邯郸市永年区",
      "adcode": "130408",
      "lat": 36.741759,
      "lon": 114.538276,
      "level": "district",
      "coordinate_system": "WGS84_APPROX_FROM_BD09",
      "coordinate_source": "pfinal_city_region_sql_bd09ll_converted",
      "aliases": [
        "邯郸市永年区",
        "邯郸永年区"
      ]
    },
    {
      "province": "河北省",
      "city": "邯郸市",
      "district": "临漳县",
      "name": "临漳县",
      "full_name": "河北省邯郸市临漳县",
      "display_name": "邯郸市临漳县",
      "adcode": "130423",
      "lat": 36.334716,
      "lon": 114.614402,
      "level": "district",
      "coordinate_system": "WGS84_APPROX_FROM_BD09",
      "coordinate_source": "pfinal_city_region_sql_bd09ll_converted",
      "aliases": [
        "邯郸临漳县",
        "邯郸市临漳县"
      ]
    },
    {
      "province": "河北省",
      "city": "邯郸市",
      "district": "成安县",
      "name": "成安县",
      "full_name": "河北省邯郸市成安县",
      "display_name": "邯郸市成安县",
      "adcode": "130424",
      "lat": 36.444097,
      "lon": 114.664301,
      "level": "district",
      "coordinate_system": "WGS84_APPROX_FROM_BD09",
      "coordinate_source": "pfinal_city_region_sql_bd09ll_converted",
      "aliases": [
        "邯郸市成安县",
        "邯郸成安县"
      ]
    },
    {
      "province": "河北省",
      "city": "邯郸市",
      "district": "大名县",
      "name": "大名县",
      "full_name": "河北省邯郸市大名县",
      "display_name": "邯郸市大名县",
      "adcode": "130425",
      "lat": 36.285408,
      "lon": 115.141963,
      "level": "district",
      "coordinate_system": "WGS84_APPROX_FROM_BD09",
      "coordinate_source": "pfinal_city_region_sql_bd09ll_converted",
      "aliases": [
        "邯郸大名县",
        "邯郸市大名县"
      ]
    },
    {
      "province": "河北省",
      "city": "邯郸市",
      "district": "涉县",
      "name": "涉县",
      "full_name": "河北省邯郸市涉县",
      "display_name": "邯郸市涉县",
      "adcode": "130426",
      "lat": 36.58491,
      "lon": 113.684652,
      "level": "district",
      "coordinate_system": "WGS84_APPROX_FROM_BD09",
      "coordinate_source": "pfinal_city_region_sql_bd09ll_converted",
      "aliases": [
        "邯郸市涉县",
        "邯郸涉县"
      ]
    },
    {
      "province": "河北省",
      "city": "邯郸市",
      "district": "磁县",
      "name": "磁县",
      "full_name": "河北省邯郸市磁县",
      "display_name": "邯郸市磁县",
      "adcode": "130427",
      "lat": 36.373863,
      "lon": 114.367888,
      "level": "district",
      "coordinate_system": "WGS84_APPROX_FROM_BD09",
      "coordinate_source": "pfinal_city_region_sql_bd09ll_converted",
      "aliases": [
        "邯郸市磁县",
        "邯郸磁县"
      ]
    },
    {
      "province": "河北省",
      "city": "邯郸市",
      "district": "邱县",
      "name": "邱县",
      "full_name": "河北省邯郸市邱县",
      "display_name": "邯郸市邱县",
      "adcode": "130430",
      "lat": 36.810714,
      "lon": 115.180986,
      "level": "district",
      "coordinate_system": "WGS84_APPROX_FROM_BD09",
      "coordinate_source": "pfinal_city_region_sql_bd09ll_converted",
      "aliases": [
        "邯郸市邱县",
        "邯郸邱县"
      ]
    },
    {
      "province": "河北省",
      "city": "邯郸市",
      "district": "鸡泽县",
      "name": "鸡泽县",
      "full_name": "河北省邯郸市鸡泽县",
      "display_name": "邯郸市鸡泽县",
      "adcode": "130431",
      "lat": 36.910496,
      "lon": 114.884343,
      "level": "district",
      "coordinate_system": "WGS84_APPROX_FROM_BD09",
      "coordinate_source": "pfinal_city_region_sql_bd09ll_converted",
      "aliases": [
        "邯郸市鸡泽县",
        "邯郸鸡泽县"
      ]
    },
    {
      "province": "河北省",
      "city": "邯郸市",
      "district": "广平县",
      "name": "广平县",
      "full_name": "河北省邯郸市广平县",
      "display_name": "邯郸市广平县",
      "adcode": "130432",
      "lat": 36.483516,
      "lon": 114.942324,
      "level": "district",
      "coordinate_system": "WGS84_APPROX_FROM_BD09",
      "coordinate_source": "pfinal_city_region_sql_bd09ll_converted",
      "aliases": [
        "邯郸市广平县",
        "邯郸广平县"
      ]
    },
    {
      "province": "河北省",
      "city": "邯郸市",
      "district": "馆陶县",
      "name": "馆陶县",
      "full_name": "河北省邯郸市馆陶县",
      "display_name": "邯郸市馆陶县",
      "adcode": "130433",
      "lat": 36.547919,
      "lon": 115.27606,
      "level": "district",
      "coordinate_system": "WGS84_APPROX_FROM_BD09",
      "coordinate_source": "pfinal_city_region_sql_bd09ll_converted",
      "aliases": [
        "邯郸市馆陶县",
        "邯郸馆陶县"
      ]
    },
    {
      "province": "河北省",
      "city": "邯郸市",
      "district": "魏县",
      "name": "魏县",
      "full_name": "河北省邯郸市魏县",
      "display_name": "邯郸市魏县",
      "adcode": "130434",
      "lat": 36.360082,
      "lon": 114.933359,
      "level": "district",
      "coordinate_system": "WGS84_APPROX_FROM_BD09",
      "coordinate_source": "pfinal_city_region_sql_bd09ll_converted",
      "aliases": [
        "邯郸市魏县",
        "邯郸魏县"
      ]
    },
    {
      "province": "河北省",
      "city": "邯郸市",
      "district": "曲周县",
      "name": "曲周县",
      "full_name": "河北省邯郸市曲周县",
      "display_name": "邯郸市曲周县",
      "adcode": "130435",
      "lat": 36.765034,
      "lon": 114.951269,
      "level": "district",
      "coordinate_system": "WGS84_APPROX_FROM_BD09",
      "coordinate_source": "pfinal_city_region_sql_bd09ll_converted",
      "aliases": [
        "邯郸市曲周县",
        "邯郸曲周县"
      ]
    },
    {
      "province": "河北省",
      "city": "邯郸市",
      "district": "武安市",
      "name": "武安市",
      "full_name": "河北省邯郸市武安市",
      "display_name": "邯郸市武安市",
      "adcode": "130481",
      "lat": 36.696337,
      "lon": 114.197906,
      "level": "district",
      "coordinate_system": "WGS84_APPROX_FROM_BD09",
      "coordinate_source": "pfinal_city_region_sql_bd09ll_converted",
      "aliases": [
        "邯郸市武安市",
        "邯郸武安市"
      ]
    },
    {
      "province": "河北省",
      "city": "邯郸市",
      "district": "邯郸经济技术开发区",
      "name": "邯郸经济技术开发区",
      "full_name": "河北省邯郸市邯郸经济技术开发区",
      "display_name": "邯郸市邯郸经济技术开发区",
      "adcode": "130471",
      "lat": 36.675178,
      "lon": 114.560372,
      "level": "district",
      "coordinate_system": "WGS84_APPROX_FROM_BD09",
      "coordinate_source": "pfinal_city_region_sql_bd09ll_converted",
      "aliases": [
        "邯郸市邯郸经济技术开发区",
        "邯郸邯郸经济技术开发区"
      ]
    },
    {
      "province": "河北省",
      "city": "邯郸市",
      "district": "邯郸冀南新区",
      "name": "邯郸冀南新区",
      "full_name": "河北省邯郸市邯郸冀南新区",
      "display_name": "邯郸市邯郸冀南新区",
      "adcode": "130473",
      "lat": 36.462646,
      "lon": 114.461978,
      "level": "district",
      "coordinate_system": "WGS84_APPROX_FROM_BD09",
      "coordinate_source": "pfinal_city_region_sql_bd09ll_converted",
      "aliases": [
        "邯郸市邯郸冀南新区",
        "邯郸邯郸冀南新区"
      ]
    },
    {
      "province": "河北省",
      "city": "邢台市",
      "district": "",
      "name": "邢台市",
      "full_name": "河北省邢台市",
      "display_name": "邢台市",
      "adcode": "1305",
      "lat": 37.070926,
      "lon": 115.019045,
      "level": "city",
      "coordinate_system": "WGS84_APPROX_FROM_BD09",
      "coordinate_source": "pfinal_city_region_sql_bd09ll_converted",
      "aliases": [
        "邢台"
      ]
    },
    {
      "province": "河北省",
      "city": "邢台市",
      "district": "襄都区",
      "name": "襄都区",
      "full_name": "河北省邢台市襄都区",
      "display_name": "邢台市襄都区",
      "adcode": "",
      "lat": 37.06217,
      "lon": 114.49272,
      "level": "district",
      "coordinate_system": "WGS84_UNVERIFIED",
      "coordinate_source": "mobile_city_picker_fallback",
      "aliases": [
        "邢台市襄都区",
        "邢台襄都区"
      ]
    },
    {
      "province": "河北省",
      "city": "邢台市",
      "district": "信都区",
      "name": "信都区",
      "full_name": "河北省邢台市信都区",
      "display_name": "邢台市信都区",
      "adcode": "",
      "lat": 37.06217,
      "lon": 114.49272,
      "level": "district",
      "coordinate_system": "WGS84_UNVERIFIED",
      "coordinate_source": "mobile_city_picker_fallback",
      "aliases": [
        "邢台信都区",
        "邢台市信都区"
      ]
    },
    {
      "province": "河北省",
      "city": "邢台市",
      "district": "任泽区",
      "name": "任泽区",
      "full_name": "河北省邢台市任泽区",
      "display_name": "邢台市任泽区",
      "adcode": "",
      "lat": 37.06217,
      "lon": 114.49272,
      "level": "district",
      "coordinate_system": "WGS84_UNVERIFIED",
      "coordinate_source": "mobile_city_picker_fallback",
      "aliases": [
        "邢台任泽区",
        "邢台市任泽区"
      ]
    },
    {
      "province": "河北省",
      "city": "邢台市",
      "district": "南和区",
      "name": "南和区",
      "full_name": "河北省邢台市南和区",
      "display_name": "邢台市南和区",
      "adcode": "",
      "lat": 37.06217,
      "lon": 114.49272,
      "level": "district",
      "coordinate_system": "WGS84_UNVERIFIED",
      "coordinate_source": "mobile_city_picker_fallback",
      "aliases": [
        "邢台南和区",
        "邢台市南和区"
      ]
    },
    {
      "province": "河北省",
      "city": "邢台市",
      "district": "临城县",
      "name": "临城县",
      "full_name": "河北省邢台市临城县",
      "display_name": "邢台市临城县",
      "adcode": "130522",
      "lat": 37.443912,
      "lon": 114.493029,
      "level": "district",
      "coordinate_system": "WGS84_APPROX_FROM_BD09",
      "coordinate_source": "pfinal_city_region_sql_bd09ll_converted",
      "aliases": [
        "邢台临城县",
        "邢台市临城县"
      ]
    },
    {
      "province": "河北省",
      "city": "邢台市",
      "district": "内丘县",
      "name": "内丘县",
      "full_name": "河北省邢台市内丘县",
      "display_name": "邢台市内丘县",
      "adcode": "130523",
      "lat": 37.286314,
      "lon": 114.5061,
      "level": "district",
      "coordinate_system": "WGS84_APPROX_FROM_BD09",
      "coordinate_source": "pfinal_city_region_sql_bd09ll_converted",
      "aliases": [
        "邢台内丘县",
        "邢台市内丘县"
      ]
    },
    {
      "province": "河北省",
      "city": "邢台市",
      "district": "柏乡县",
      "name": "柏乡县",
      "full_name": "河北省邢台市柏乡县",
      "display_name": "邢台市柏乡县",
      "adcode": "130524",
      "lat": 37.482057,
      "lon": 114.687136,
      "level": "district",
      "coordinate_system": "WGS84_APPROX_FROM_BD09",
      "coordinate_source": "pfinal_city_region_sql_bd09ll_converted",
      "aliases": [
        "邢台市柏乡县",
        "邢台柏乡县"
      ]
    },
    {
      "province": "河北省",
      "city": "邢台市",
      "district": "隆尧县",
      "name": "隆尧县",
      "full_name": "河北省邢台市隆尧县",
      "display_name": "邢台市隆尧县",
      "adcode": "130525",
      "lat": 37.349552,
      "lon": 114.76409,
      "level": "district",
      "coordinate_system": "WGS84_APPROX_FROM_BD09",
      "coordinate_source": "pfinal_city_region_sql_bd09ll_converted",
      "aliases": [
        "邢台市隆尧县",
        "邢台隆尧县"
      ]
    },
    {
      "province": "河北省",
      "city": "邢台市",
      "district": "宁晋县",
      "name": "宁晋县",
      "full_name": "河北省邢台市宁晋县",
      "display_name": "邢台市宁晋县",
      "adcode": "130528",
      "lat": 37.619253,
      "lon": 114.913257,
      "level": "district",
      "coordinate_system": "WGS84_APPROX_FROM_BD09",
      "coordinate_source": "pfinal_city_region_sql_bd09ll_converted",
      "aliases": [
        "邢台宁晋县",
        "邢台市宁晋县"
      ]
    },
    {
      "province": "河北省",
      "city": "邢台市",
      "district": "巨鹿县",
      "name": "巨鹿县",
      "full_name": "河北省邢台市巨鹿县",
      "display_name": "邢台市巨鹿县",
      "adcode": "130529",
      "lat": 37.220596,
      "lon": 115.030923,
      "level": "district",
      "coordinate_system": "WGS84_APPROX_FROM_BD09",
      "coordinate_source": "pfinal_city_region_sql_bd09ll_converted",
      "aliases": [
        "邢台巨鹿县",
        "邢台市巨鹿县"
      ]
    },
    {
      "province": "河北省",
      "city": "邢台市",
      "district": "新河县",
      "name": "新河县",
      "full_name": "河北省邢台市新河县",
      "display_name": "邢台市新河县",
      "adcode": "130530",
      "lat": 37.52808,
      "lon": 115.235976,
      "level": "district",
      "coordinate_system": "WGS84_APPROX_FROM_BD09",
      "coordinate_source": "pfinal_city_region_sql_bd09ll_converted",
      "aliases": [
        "邢台市新河县",
        "邢台新河县"
      ]
    },
    {
      "province": "河北省",
      "city": "邢台市",
      "district": "广宗县",
      "name": "广宗县",
      "full_name": "河北省邢台市广宗县",
      "display_name": "邢台市广宗县",
      "adcode": "130531",
      "lat": 37.074146,
      "lon": 115.136865,
      "level": "district",
      "coordinate_system": "WGS84_APPROX_FROM_BD09",
      "coordinate_source": "pfinal_city_region_sql_bd09ll_converted",
      "aliases": [
        "邢台市广宗县",
        "邢台广宗县"
      ]
    },
    {
      "province": "河北省",
      "city": "邢台市",
      "district": "平乡县",
      "name": "平乡县",
      "full_name": "河北省邢台市平乡县",
      "display_name": "邢台市平乡县",
      "adcode": "130532",
      "lat": 37.062815,
      "lon": 115.023964,
      "level": "district",
      "coordinate_system": "WGS84_APPROX_FROM_BD09",
      "coordinate_source": "pfinal_city_region_sql_bd09ll_converted",
      "aliases": [
        "邢台市平乡县",
        "邢台平乡县"
      ]
    },
    {
      "province": "河北省",
      "city": "邢台市",
      "district": "威县",
      "name": "威县",
      "full_name": "河北省邢台市威县",
      "display_name": "邢台市威县",
      "adcode": "130533",
      "lat": 36.975453,
      "lon": 115.261031,
      "level": "district",
      "coordinate_system": "WGS84_APPROX_FROM_BD09",
      "coordinate_source": "pfinal_city_region_sql_bd09ll_converted",
      "aliases": [
        "邢台威县",
        "邢台市威县"
      ]
    },
    {
      "province": "河北省",
      "city": "邢台市",
      "district": "清河县",
      "name": "清河县",
      "full_name": "河北省邢台市清河县",
      "display_name": "邢台市清河县",
      "adcode": "130534",
      "lat": 37.039709,
      "lon": 115.662193,
      "level": "district",
      "coordinate_system": "WGS84_APPROX_FROM_BD09",
      "coordinate_source": "pfinal_city_region_sql_bd09ll_converted",
      "aliases": [
        "邢台市清河县",
        "邢台清河县"
      ]
    },
    {
      "province": "河北省",
      "city": "邢台市",
      "district": "临西县",
      "name": "临西县",
      "full_name": "河北省邢台市临西县",
      "display_name": "邢台市临西县",
      "adcode": "130535",
      "lat": 36.870733,
      "lon": 115.495052,
      "level": "district",
      "coordinate_system": "WGS84_APPROX_FROM_BD09",
      "coordinate_source": "pfinal_city_region_sql_bd09ll_converted",
      "aliases": [
        "邢台临西县",
        "邢台市临西县"
      ]
    },
    {
      "province": "河北省",
      "city": "邢台市",
      "district": "南宫市",
      "name": "南宫市",
      "full_name": "河北省邢台市南宫市",
      "display_name": "邢台市南宫市",
      "adcode": "130581",
      "lat": 37.357243,
      "lon": 115.401756,
      "level": "district",
      "coordinate_system": "WGS84_APPROX_FROM_BD09",
      "coordinate_source": "pfinal_city_region_sql_bd09ll_converted",
      "aliases": [
        "邢台南宫市",
        "邢台市南宫市"
      ]
    },
    {
      "province": "河北省",
      "city": "邢台市",
      "district": "沙河市",
      "name": "沙河市",
      "full_name": "河北省邢台市沙河市",
      "display_name": "邢台市沙河市",
      "adcode": "130582",
      "lat": 36.85467,
      "lon": 114.497112,
      "level": "district",
      "coordinate_system": "WGS84_APPROX_FROM_BD09",
      "coordinate_source": "pfinal_city_region_sql_bd09ll_converted",
      "aliases": [
        "邢台市沙河市",
        "邢台沙河市"
      ]
    },
    {
      "province": "河北省",
      "city": "邢台市",
      "district": "河北邢台经济开发区",
      "name": "河北邢台经济开发区",
      "full_name": "河北省邢台市河北邢台经济开发区",
      "display_name": "邢台市河北邢台经济开发区",
      "adcode": "130571",
      "lat": 37.061365,
      "lon": 114.56003,
      "level": "district",
      "coordinate_system": "WGS84_APPROX_FROM_BD09",
      "coordinate_source": "pfinal_city_region_sql_bd09ll_converted",
      "aliases": [
        "邢台市河北邢台经济开发区",
        "邢台河北邢台经济开发区"
      ]
    },
    {
      "province": "河北省",
      "city": "保定市",
      "district": "",
      "name": "保定市",
      "full_name": "河北省保定市",
      "display_name": "保定市",
      "adcode": "1306",
      "lat": 38.873,
      "lon": 115.458683,
      "level": "city",
      "coordinate_system": "WGS84_APPROX_FROM_BD09",
      "coordinate_source": "pfinal_city_region_sql_bd09ll_converted",
      "aliases": [
        "保定"
      ]
    },
    {
      "province": "河北省",
      "city": "保定市",
      "district": "竞秀区",
      "name": "竞秀区",
      "full_name": "河北省保定市竞秀区",
      "display_name": "保定市竞秀区",
      "adcode": "130602",
      "lat": 38.876683,
      "lon": 115.452663,
      "level": "district",
      "coordinate_system": "WGS84_APPROX_FROM_BD09",
      "coordinate_source": "pfinal_city_region_sql_bd09ll_converted",
      "aliases": [
        "保定市竞秀区",
        "保定竞秀区"
      ]
    },
    {
      "province": "河北省",
      "city": "保定市",
      "district": "莲池区",
      "name": "莲池区",
      "full_name": "河北省保定市莲池区",
      "display_name": "保定市莲池区",
      "adcode": "130606",
      "lat": 38.853995,
      "lon": 115.522929,
      "level": "district",
      "coordinate_system": "WGS84_APPROX_FROM_BD09",
      "coordinate_source": "pfinal_city_region_sql_bd09ll_converted",
      "aliases": [
        "保定市莲池区",
        "保定莲池区"
      ]
    },
    {
      "province": "河北省",
      "city": "保定市",
      "district": "满城区",
      "name": "满城区",
      "full_name": "河北省保定市满城区",
      "display_name": "保定市满城区",
      "adcode": "130607",
      "lat": 38.948177,
      "lon": 115.315696,
      "level": "district",
      "coordinate_system": "WGS84_APPROX_FROM_BD09",
      "coordinate_source": "pfinal_city_region_sql_bd09ll_converted",
      "aliases": [
        "保定市满城区",
        "保定满城区"
      ]
    },
    {
      "province": "河北省",
      "city": "保定市",
      "district": "清苑区",
      "name": "清苑区",
      "full_name": "河北省保定市清苑区",
      "display_name": "保定市清苑区",
      "adcode": "130608",
      "lat": 38.764528,
      "lon": 115.483788,
      "level": "district",
      "coordinate_system": "WGS84_APPROX_FROM_BD09",
      "coordinate_source": "pfinal_city_region_sql_bd09ll_converted",
      "aliases": [
        "保定市清苑区",
        "保定清苑区"
      ]
    },
    {
      "province": "河北省",
      "city": "保定市",
      "district": "徐水区",
      "name": "徐水区",
      "full_name": "河北省保定市徐水区",
      "display_name": "保定市徐水区",
      "adcode": "130609",
      "lat": 39.017835,
      "lon": 115.64999,
      "level": "district",
      "coordinate_system": "WGS84_APPROX_FROM_BD09",
      "coordinate_source": "pfinal_city_region_sql_bd09ll_converted",
      "aliases": [
        "保定市徐水区",
        "保定徐水区"
      ]
    },
    {
      "province": "河北省",
      "city": "保定市",
      "district": "涞水县",
      "name": "涞水县",
      "full_name": "河北省保定市涞水县",
      "display_name": "保定市涞水县",
      "adcode": "130623",
      "lat": 39.393325,
      "lon": 115.707835,
      "level": "district",
      "coordinate_system": "WGS84_APPROX_FROM_BD09",
      "coordinate_source": "pfinal_city_region_sql_bd09ll_converted",
      "aliases": [
        "保定市涞水县",
        "保定涞水县"
      ]
    },
    {
      "province": "河北省",
      "city": "保定市",
      "district": "阜平县",
      "name": "阜平县",
      "full_name": "河北省保定市阜平县",
      "display_name": "保定市阜平县",
      "adcode": "130624",
      "lat": 38.848789,
      "lon": 114.188629,
      "level": "district",
      "coordinate_system": "WGS84_APPROX_FROM_BD09",
      "coordinate_source": "pfinal_city_region_sql_bd09ll_converted",
      "aliases": [
        "保定市阜平县",
        "保定阜平县"
      ]
    },
    {
      "province": "河北省",
      "city": "保定市",
      "district": "定兴县",
      "name": "定兴县",
      "full_name": "河北省保定市定兴县",
      "display_name": "保定市定兴县",
      "adcode": "130626",
      "lat": 39.262119,
      "lon": 115.801933,
      "level": "district",
      "coordinate_system": "WGS84_APPROX_FROM_BD09",
      "coordinate_source": "pfinal_city_region_sql_bd09ll_converted",
      "aliases": [
        "保定定兴县",
        "保定市定兴县"
      ]
    },
    {
      "province": "河北省",
      "city": "保定市",
      "district": "唐县",
      "name": "唐县",
      "full_name": "河北省保定市唐县",
      "display_name": "保定市唐县",
      "adcode": "130627",
      "lat": 38.747226,
      "lon": 114.976953,
      "level": "district",
      "coordinate_system": "WGS84_APPROX_FROM_BD09",
      "coordinate_source": "pfinal_city_region_sql_bd09ll_converted",
      "aliases": [
        "保定唐县",
        "保定市唐县"
      ]
    },
    {
      "province": "河北省",
      "city": "保定市",
      "district": "高阳县",
      "name": "高阳县",
      "full_name": "河北省保定市高阳县",
      "display_name": "保定市高阳县",
      "adcode": "130628",
      "lat": 38.699397,
      "lon": 115.772935,
      "level": "district",
      "coordinate_system": "WGS84_APPROX_FROM_BD09",
      "coordinate_source": "pfinal_city_region_sql_bd09ll_converted",
      "aliases": [
        "保定市高阳县",
        "保定高阳县"
      ]
    },
    {
      "province": "河北省",
      "city": "保定市",
      "district": "容城县",
      "name": "容城县",
      "full_name": "河北省保定市容城县",
      "display_name": "保定市容城县",
      "adcode": "130629",
      "lat": 39.042144,
      "lon": 115.856107,
      "level": "district",
      "coordinate_system": "WGS84_APPROX_FROM_BD09",
      "coordinate_source": "pfinal_city_region_sql_bd09ll_converted",
      "aliases": [
        "保定容城县",
        "保定市容城县"
      ]
    },
    {
      "province": "河北省",
      "city": "保定市",
      "district": "涞源县",
      "name": "涞源县",
      "full_name": "河北省保定市涞源县",
      "display_name": "保定市涞源县",
      "adcode": "130630",
      "lat": 39.359193,
      "lon": 114.687915,
      "level": "district",
      "coordinate_system": "WGS84_APPROX_FROM_BD09",
      "coordinate_source": "pfinal_city_region_sql_bd09ll_converted",
      "aliases": [
        "保定市涞源县",
        "保定涞源县"
      ]
    },
    {
      "province": "河北省",
      "city": "保定市",
      "district": "望都县",
      "name": "望都县",
      "full_name": "河北省保定市望都县",
      "display_name": "保定市望都县",
      "adcode": "130631",
      "lat": 38.693569,
      "lon": 115.148697,
      "level": "district",
      "coordinate_system": "WGS84_APPROX_FROM_BD09",
      "coordinate_source": "pfinal_city_region_sql_bd09ll_converted",
      "aliases": [
        "保定市望都县",
        "保定望都县"
      ]
    },
    {
      "province": "河北省",
      "city": "保定市",
      "district": "安新县",
      "name": "安新县",
      "full_name": "河北省保定市安新县",
      "display_name": "保定市安新县",
      "adcode": "130632",
      "lat": 38.934813,
      "lon": 115.930164,
      "level": "district",
      "coordinate_system": "WGS84_APPROX_FROM_BD09",
      "coordinate_source": "pfinal_city_region_sql_bd09ll_converted",
      "aliases": [
        "保定安新县",
        "保定市安新县"
      ]
    },
    {
      "province": "河北省",
      "city": "保定市",
      "district": "易县",
      "name": "易县",
      "full_name": "河北省保定市易县",
      "display_name": "保定市易县",
      "adcode": "130633",
      "lat": 39.348317,
      "lon": 115.490744,
      "level": "district",
      "coordinate_system": "WGS84_APPROX_FROM_BD09",
      "coordinate_source": "pfinal_city_region_sql_bd09ll_converted",
      "aliases": [
        "保定市易县",
        "保定易县"
      ]
    },
    {
      "province": "河北省",
      "city": "保定市",
      "district": "曲阳县",
      "name": "曲阳县",
      "full_name": "河北省保定市曲阳县",
      "display_name": "保定市曲阳县",
      "adcode": "130634",
      "lat": 38.621631,
      "lon": 114.738936,
      "level": "district",
      "coordinate_system": "WGS84_APPROX_FROM_BD09",
      "coordinate_source": "pfinal_city_region_sql_bd09ll_converted",
      "aliases": [
        "保定市曲阳县",
        "保定曲阳县"
      ]
    },
    {
      "province": "河北省",
      "city": "保定市",
      "district": "蠡县",
      "name": "蠡县",
      "full_name": "河北省保定市蠡县",
      "display_name": "保定市蠡县",
      "adcode": "130635",
      "lat": 38.487625,
      "lon": 115.578106,
      "level": "district",
      "coordinate_system": "WGS84_APPROX_FROM_BD09",
      "coordinate_source": "pfinal_city_region_sql_bd09ll_converted",
      "aliases": [
        "保定市蠡县",
        "保定蠡县"
      ]
    },
    {
      "province": "河北省",
      "city": "保定市",
      "district": "顺平县",
      "name": "顺平县",
      "full_name": "河北省保定市顺平县",
      "display_name": "保定市顺平县",
      "adcode": "130636",
      "lat": 38.836671,
      "lon": 115.128642,
      "level": "district",
      "coordinate_system": "WGS84_APPROX_FROM_BD09",
      "coordinate_source": "pfinal_city_region_sql_bd09ll_converted",
      "aliases": [
        "保定市顺平县",
        "保定顺平县"
      ]
    },
    {
      "province": "河北省",
      "city": "保定市",
      "district": "博野县",
      "name": "博野县",
      "full_name": "河北省保定市博野县",
      "display_name": "保定市博野县",
      "adcode": "130637",
      "lat": 38.456549,
      "lon": 115.457731,
      "level": "district",
      "coordinate_system": "WGS84_APPROX_FROM_BD09",
      "coordinate_source": "pfinal_city_region_sql_bd09ll_converted",
      "aliases": [
        "保定博野县",
        "保定市博野县"
      ]
    },
    {
      "province": "河北省",
      "city": "保定市",
      "district": "雄县",
      "name": "雄县",
      "full_name": "河北省保定市雄县",
      "display_name": "保定市雄县",
      "adcode": "130638",
      "lat": 38.993432,
      "lon": 116.101798,
      "level": "district",
      "coordinate_system": "WGS84_APPROX_FROM_BD09",
      "coordinate_source": "pfinal_city_region_sql_bd09ll_converted",
      "aliases": [
        "保定市雄县",
        "保定雄县"
      ]
    },
    {
      "province": "河北省",
      "city": "保定市",
      "district": "涿州市",
      "name": "涿州市",
      "full_name": "河北省保定市涿州市",
      "display_name": "保定市涿州市",
      "adcode": "130681",
      "lat": 39.484334,
      "lon": 115.969006,
      "level": "district",
      "coordinate_system": "WGS84_APPROX_FROM_BD09",
      "coordinate_source": "pfinal_city_region_sql_bd09ll_converted",
      "aliases": [
        "保定市涿州市",
        "保定涿州市"
      ]
    },
    {
      "province": "河北省",
      "city": "保定市",
      "district": "定州市",
      "name": "定州市",
      "full_name": "河北省保定市定州市",
      "display_name": "保定市定州市",
      "adcode": "130682",
      "lat": 38.515583,
      "lon": 114.983952,
      "level": "district",
      "coordinate_system": "WGS84_APPROX_FROM_BD09",
      "coordinate_source": "pfinal_city_region_sql_bd09ll_converted",
      "aliases": [
        "保定定州市",
        "保定市定州市"
      ]
    },
    {
      "province": "河北省",
      "city": "保定市",
      "district": "安国市",
      "name": "安国市",
      "full_name": "河北省保定市安国市",
      "display_name": "保定市安国市",
      "adcode": "130683",
      "lat": 38.417766,
      "lon": 115.320748,
      "level": "district",
      "coordinate_system": "WGS84_APPROX_FROM_BD09",
      "coordinate_source": "pfinal_city_region_sql_bd09ll_converted",
      "aliases": [
        "保定安国市",
        "保定市安国市"
      ]
    },
    {
      "province": "河北省",
      "city": "保定市",
      "district": "高碑店市",
      "name": "高碑店市",
      "full_name": "河北省保定市高碑店市",
      "display_name": "保定市高碑店市",
      "adcode": "130684",
      "lat": 39.325696,
      "lon": 115.868099,
      "level": "district",
      "coordinate_system": "WGS84_APPROX_FROM_BD09",
      "coordinate_source": "pfinal_city_region_sql_bd09ll_converted",
      "aliases": [
        "保定市高碑店市",
        "保定高碑店市"
      ]
    },
    {
      "province": "河北省",
      "city": "保定市",
      "district": "保定高新技术产业开发区",
      "name": "保定高新技术产业开发区",
      "full_name": "河北省保定市保定高新技术产业开发区",
      "display_name": "保定市保定高新技术产业开发区",
      "adcode": "130671",
      "lat": 39.48409,
      "lon": 116.03866,
      "level": "district",
      "coordinate_system": "WGS84_APPROX_FROM_BD09",
      "coordinate_source": "pfinal_city_region_sql_bd09ll_converted",
      "aliases": [
        "保定保定高新技术产业开发区",
        "保定市保定高新技术产业开发区"
      ]
    },
    {
      "province": "河北省",
      "city": "保定市",
      "district": "保定白沟新城",
      "name": "保定白沟新城",
      "full_name": "河北省保定市保定白沟新城",
      "display_name": "保定市保定白沟新城",
      "adcode": "130672",
      "lat": 39.127082,
      "lon": 116.039042,
      "level": "district",
      "coordinate_system": "WGS84_APPROX_FROM_BD09",
      "coordinate_source": "pfinal_city_region_sql_bd09ll_converted",
      "aliases": [
        "保定保定白沟新城",
        "保定市保定白沟新城"
      ]
    },
    {
      "province": "河北省",
      "city": "张家口市",
      "district": "",
      "name": "张家口市",
      "full_name": "河北省张家口市",
      "display_name": "张家口市",
      "adcode": "1307",
      "lat": 40.766218,
      "lon": 114.87989,
      "level": "city",
      "coordinate_system": "WGS84_APPROX_FROM_BD09",
      "coordinate_source": "pfinal_city_region_sql_bd09ll_converted",
      "aliases": [
        "张家口"
      ]
    },
    {
      "province": "河北省",
      "city": "张家口市",
      "district": "桥东区",
      "name": "桥东区",
      "full_name": "河北省张家口市桥东区",
      "display_name": "张家口市桥东区",
      "adcode": "130702",
      "lat": 40.787306,
      "lon": 114.887892,
      "level": "district",
      "coordinate_system": "WGS84_APPROX_FROM_BD09",
      "coordinate_source": "pfinal_city_region_sql_bd09ll_converted",
      "aliases": [
        "张家口市桥东区",
        "张家口桥东区"
      ]
    },
    {
      "province": "河北省",
      "city": "张家口市",
      "district": "桥西区",
      "name": "桥西区",
      "full_name": "河北省张家口市桥西区",
      "display_name": "张家口市桥西区",
      "adcode": "130703",
      "lat": 40.818262,
      "lon": 114.863866,
      "level": "district",
      "coordinate_system": "WGS84_APPROX_FROM_BD09",
      "coordinate_source": "pfinal_city_region_sql_bd09ll_converted",
      "aliases": [
        "张家口市桥西区",
        "张家口桥西区"
      ]
    },
    {
      "province": "河北省",
      "city": "张家口市",
      "district": "宣化区",
      "name": "宣化区",
      "full_name": "河北省张家口市宣化区",
      "display_name": "张家口市宣化区",
      "adcode": "130705",
      "lat": 40.606857,
      "lon": 115.092387,
      "level": "district",
      "coordinate_system": "WGS84_APPROX_FROM_BD09",
      "coordinate_source": "pfinal_city_region_sql_bd09ll_converted",
      "aliases": [
        "张家口宣化区",
        "张家口市宣化区"
      ]
    },
    {
      "province": "河北省",
      "city": "张家口市",
      "district": "下花园区",
      "name": "下花园区",
      "full_name": "河北省张家口市下花园区",
      "display_name": "张家口市下花园区",
      "adcode": "130706",
      "lat": 40.500871,
      "lon": 115.280576,
      "level": "district",
      "coordinate_system": "WGS84_APPROX_FROM_BD09",
      "coordinate_source": "pfinal_city_region_sql_bd09ll_converted",
      "aliases": [
        "张家口下花园区",
        "张家口市下花园区"
      ]
    },
    {
      "province": "河北省",
      "city": "张家口市",
      "district": "万全区",
      "name": "万全区",
      "full_name": "河北省张家口市万全区",
      "display_name": "张家口市万全区",
      "adcode": "130708",
      "lat": 40.765542,
      "lon": 114.734672,
      "level": "district",
      "coordinate_system": "WGS84_APPROX_FROM_BD09",
      "coordinate_source": "pfinal_city_region_sql_bd09ll_converted",
      "aliases": [
        "张家口万全区",
        "张家口市万全区"
      ]
    },
    {
      "province": "河北省",
      "city": "张家口市",
      "district": "崇礼区",
      "name": "崇礼区",
      "full_name": "河北省张家口市崇礼区",
      "display_name": "张家口市崇礼区",
      "adcode": "130709",
      "lat": 40.972938,
      "lon": 115.27652,
      "level": "district",
      "coordinate_system": "WGS84_APPROX_FROM_BD09",
      "coordinate_source": "pfinal_city_region_sql_bd09ll_converted",
      "aliases": [
        "张家口崇礼区",
        "张家口市崇礼区"
      ]
    },
    {
      "province": "河北省",
      "city": "张家口市",
      "district": "张北县",
      "name": "张北县",
      "full_name": "河北省张家口市张北县",
      "display_name": "张家口市张北县",
      "adcode": "130722",
      "lat": 41.156836,
      "lon": 114.71364,
      "level": "district",
      "coordinate_system": "WGS84_APPROX_FROM_BD09",
      "coordinate_source": "pfinal_city_region_sql_bd09ll_converted",
      "aliases": [
        "张家口市张北县",
        "张家口张北县"
      ]
    },
    {
      "province": "河北省",
      "city": "张家口市",
      "district": "康保县",
      "name": "康保县",
      "full_name": "河北省张家口市康保县",
      "display_name": "张家口市康保县",
      "adcode": "130723",
      "lat": 41.850437,
      "lon": 114.59376,
      "level": "district",
      "coordinate_system": "WGS84_APPROX_FROM_BD09",
      "coordinate_source": "pfinal_city_region_sql_bd09ll_converted",
      "aliases": [
        "张家口市康保县",
        "张家口康保县"
      ]
    },
    {
      "province": "河北省",
      "city": "张家口市",
      "district": "沽源县",
      "name": "沽源县",
      "full_name": "河北省张家口市沽源县",
      "display_name": "张家口市沽源县",
      "adcode": "130724",
      "lat": 41.6677,
      "lon": 115.682582,
      "level": "district",
      "coordinate_system": "WGS84_APPROX_FROM_BD09",
      "coordinate_source": "pfinal_city_region_sql_bd09ll_converted",
      "aliases": [
        "张家口市沽源县",
        "张家口沽源县"
      ]
    },
    {
      "province": "河北省",
      "city": "张家口市",
      "district": "尚义县",
      "name": "尚义县",
      "full_name": "河北省张家口市尚义县",
      "display_name": "张家口市尚义县",
      "adcode": "130725",
      "lat": 41.074615,
      "lon": 113.962625,
      "level": "district",
      "coordinate_system": "WGS84_APPROX_FROM_BD09",
      "coordinate_source": "pfinal_city_region_sql_bd09ll_converted",
      "aliases": [
        "张家口尚义县",
        "张家口市尚义县"
      ]
    },
    {
      "province": "河北省",
      "city": "张家口市",
      "district": "蔚县",
      "name": "蔚县",
      "full_name": "河北省张家口市蔚县",
      "display_name": "张家口市蔚县",
      "adcode": "130726",
      "lat": 39.839809,
      "lon": 114.583011,
      "level": "district",
      "coordinate_system": "WGS84_APPROX_FROM_BD09",
      "coordinate_source": "pfinal_city_region_sql_bd09ll_converted",
      "aliases": [
        "张家口市蔚县",
        "张家口蔚县"
      ]
    },
    {
      "province": "河北省",
      "city": "张家口市",
      "district": "阳原县",
      "name": "阳原县",
      "full_name": "河北省张家口市阳原县",
      "display_name": "张家口市阳原县",
      "adcode": "130727",
      "lat": 40.102291,
      "lon": 114.144331,
      "level": "district",
      "coordinate_system": "WGS84_APPROX_FROM_BD09",
      "coordinate_source": "pfinal_city_region_sql_bd09ll_converted",
      "aliases": [
        "张家口市阳原县",
        "张家口阳原县"
      ]
    },
    {
      "province": "河北省",
      "city": "张家口市",
      "district": "怀安县",
      "name": "怀安县",
      "full_name": "河北省张家口市怀安县",
      "display_name": "张家口市怀安县",
      "adcode": "130728",
      "lat": 40.672737,
      "lon": 114.379356,
      "level": "district",
      "coordinate_system": "WGS84_APPROX_FROM_BD09",
      "coordinate_source": "pfinal_city_region_sql_bd09ll_converted",
      "aliases": [
        "张家口市怀安县",
        "张家口怀安县"
      ]
    },
    {
      "province": "河北省",
      "city": "张家口市",
      "district": "怀来县",
      "name": "怀来县",
      "full_name": "河北省张家口市怀来县",
      "display_name": "张家口市怀来县",
      "adcode": "130730",
      "lat": 40.41328,
      "lon": 115.511693,
      "level": "district",
      "coordinate_system": "WGS84_APPROX_FROM_BD09",
      "coordinate_source": "pfinal_city_region_sql_bd09ll_converted",
      "aliases": [
        "张家口市怀来县",
        "张家口怀来县"
      ]
    },
    {
      "province": "河北省",
      "city": "张家口市",
      "district": "涿鹿县",
      "name": "涿鹿县",
      "full_name": "河北省张家口市涿鹿县",
      "display_name": "张家口市涿鹿县",
      "adcode": "130731",
      "lat": 40.378211,
      "lon": 115.19859,
      "level": "district",
      "coordinate_system": "WGS84_APPROX_FROM_BD09",
      "coordinate_source": "pfinal_city_region_sql_bd09ll_converted",
      "aliases": [
        "张家口市涿鹿县",
        "张家口涿鹿县"
      ]
    },
    {
      "province": "河北省",
      "city": "张家口市",
      "district": "赤城县",
      "name": "赤城县",
      "full_name": "河北省张家口市赤城县",
      "display_name": "张家口市赤城县",
      "adcode": "130732",
      "lat": 40.9113,
      "lon": 115.825794,
      "level": "district",
      "coordinate_system": "WGS84_APPROX_FROM_BD09",
      "coordinate_source": "pfinal_city_region_sql_bd09ll_converted",
      "aliases": [
        "张家口市赤城县",
        "张家口赤城县"
      ]
    },
    {
      "province": "河北省",
      "city": "张家口市",
      "district": "张家口经济开发区",
      "name": "张家口经济开发区",
      "full_name": "河北省张家口市张家口经济开发区",
      "display_name": "张家口市张家口经济开发区",
      "adcode": "130771",
      "lat": 40.773081,
      "lon": 114.878538,
      "level": "district",
      "coordinate_system": "WGS84_APPROX_FROM_BD09",
      "coordinate_source": "pfinal_city_region_sql_bd09ll_converted",
      "aliases": [
        "张家口市张家口经济开发区",
        "张家口张家口经济开发区"
      ]
    },
    {
      "province": "河北省",
      "city": "张家口市",
      "district": "张家口市察北管理区",
      "name": "张家口市察北管理区",
      "full_name": "河北省张家口市张家口市察北管理区",
      "display_name": "张家口市张家口市察北管理区",
      "adcode": "130772",
      "lat": 41.400058,
      "lon": 114.939263,
      "level": "district",
      "coordinate_system": "WGS84_APPROX_FROM_BD09",
      "coordinate_source": "pfinal_city_region_sql_bd09ll_converted",
      "aliases": [
        "张家口市张家口市察北管理区",
        "张家口张家口市察北管理区"
      ]
    },
    {
      "province": "河北省",
      "city": "张家口市",
      "district": "张家口市塞北管理区",
      "name": "张家口市塞北管理区",
      "full_name": "河北省张家口市张家口市塞北管理区",
      "display_name": "张家口市张家口市塞北管理区",
      "adcode": "130773",
      "lat": 41.870566,
      "lon": 115.815952,
      "level": "district",
      "coordinate_system": "WGS84_APPROX_FROM_BD09",
      "coordinate_source": "pfinal_city_region_sql_bd09ll_converted",
      "aliases": [
        "张家口市张家口市塞北管理区",
        "张家口张家口市塞北管理区"
      ]
    },
    {
      "province": "河北省",
      "city": "承德市",
      "district": "",
      "name": "承德市",
      "full_name": "河北省承德市",
      "display_name": "承德市",
      "adcode": "1308",
      "lat": 40.94992,
      "lon": 117.956673,
      "level": "city",
      "coordinate_system": "WGS84_APPROX_FROM_BD09",
      "coordinate_source": "pfinal_city_region_sql_bd09ll_converted",
      "aliases": [
        "承德"
      ]
    },
    {
      "province": "河北省",
      "city": "承德市",
      "district": "双桥区",
      "name": "双桥区",
      "full_name": "河北省承德市双桥区",
      "display_name": "承德市双桥区",
      "adcode": "130802",
      "lat": 40.973045,
      "lon": 117.936716,
      "level": "district",
      "coordinate_system": "WGS84_APPROX_FROM_BD09",
      "coordinate_source": "pfinal_city_region_sql_bd09ll_converted",
      "aliases": [
        "承德双桥区",
        "承德市双桥区"
      ]
    },
    {
      "province": "河北省",
      "city": "承德市",
      "district": "双滦区",
      "name": "双滦区",
      "full_name": "河北省承德市双滦区",
      "display_name": "承德市双滦区",
      "adcode": "130803",
      "lat": 40.957255,
      "lon": 117.793517,
      "level": "district",
      "coordinate_system": "WGS84_APPROX_FROM_BD09",
      "coordinate_source": "pfinal_city_region_sql_bd09ll_converted",
      "aliases": [
        "承德双滦区",
        "承德市双滦区"
      ]
    },
    {
      "province": "河北省",
      "city": "承德市",
      "district": "鹰手营子矿区",
      "name": "鹰手营子矿区",
      "full_name": "河北省承德市鹰手营子矿区",
      "display_name": "承德市鹰手营子矿区",
      "adcode": "130804",
      "lat": 40.545137,
      "lon": 117.652631,
      "level": "district",
      "coordinate_system": "WGS84_APPROX_FROM_BD09",
      "coordinate_source": "pfinal_city_region_sql_bd09ll_converted",
      "aliases": [
        "承德市鹰手营子矿区",
        "承德鹰手营子矿区"
      ]
    },
    {
      "province": "河北省",
      "city": "承德市",
      "district": "承德县",
      "name": "承德县",
      "full_name": "河北省承德市承德县",
      "display_name": "承德市承德县",
      "adcode": "130821",
      "lat": 40.766671,
      "lon": 118.167553,
      "level": "district",
      "coordinate_system": "WGS84_APPROX_FROM_BD09",
      "coordinate_source": "pfinal_city_region_sql_bd09ll_converted",
      "aliases": [
        "承德市承德县",
        "承德承德县"
      ]
    },
    {
      "province": "河北省",
      "city": "承德市",
      "district": "兴隆县",
      "name": "兴隆县",
      "full_name": "河北省承德市兴隆县",
      "display_name": "承德市兴隆县",
      "adcode": "130822",
      "lat": 40.415983,
      "lon": 117.49449,
      "level": "district",
      "coordinate_system": "WGS84_APPROX_FROM_BD09",
      "coordinate_source": "pfinal_city_region_sql_bd09ll_converted",
      "aliases": [
        "承德兴隆县",
        "承德市兴隆县"
      ]
    },
    {
      "province": "河北省",
      "city": "承德市",
      "district": "滦平县",
      "name": "滦平县",
      "full_name": "河北省承德市滦平县",
      "display_name": "承德市滦平县",
      "adcode": "130824",
      "lat": 40.939735,
      "lon": 117.326317,
      "level": "district",
      "coordinate_system": "WGS84_APPROX_FROM_BD09",
      "coordinate_source": "pfinal_city_region_sql_bd09ll_converted",
      "aliases": [
        "承德市滦平县",
        "承德滦平县"
      ]
    },
    {
      "province": "河北省",
      "city": "承德市",
      "district": "隆化县",
      "name": "隆化县",
      "full_name": "河北省承德市隆化县",
      "display_name": "承德市隆化县",
      "adcode": "130825",
      "lat": 41.311737,
      "lon": 117.732392,
      "level": "district",
      "coordinate_system": "WGS84_APPROX_FROM_BD09",
      "coordinate_source": "pfinal_city_region_sql_bd09ll_converted",
      "aliases": [
        "承德市隆化县",
        "承德隆化县"
      ]
    },
    {
      "province": "河北省",
      "city": "承德市",
      "district": "丰宁满族自治县",
      "name": "丰宁满族自治县",
      "full_name": "河北省承德市丰宁满族自治县",
      "display_name": "承德市丰宁满族自治县",
      "adcode": "130826",
      "lat": 41.207275,
      "lon": 116.63998,
      "level": "district",
      "coordinate_system": "WGS84_APPROX_FROM_BD09",
      "coordinate_source": "pfinal_city_region_sql_bd09ll_converted",
      "aliases": [
        "承德丰宁满族自治县",
        "承德市丰宁满族自治县"
      ]
    },
    {
      "province": "河北省",
      "city": "承德市",
      "district": "宽城满族自治县",
      "name": "宽城满族自治县",
      "full_name": "河北省承德市宽城满族自治县",
      "display_name": "承德市宽城满族自治县",
      "adcode": "130827",
      "lat": 40.609918,
      "lon": 118.478752,
      "level": "district",
      "coordinate_system": "WGS84_APPROX_FROM_BD09",
      "coordinate_source": "pfinal_city_region_sql_bd09ll_converted",
      "aliases": [
        "承德宽城满族自治县",
        "承德市宽城满族自治县"
      ]
    },
    {
      "province": "河北省",
      "city": "承德市",
      "district": "围场满族蒙古族自治县",
      "name": "围场满族蒙古族自治县",
      "full_name": "河北省承德市围场满族蒙古族自治县",
      "display_name": "承德市围场满族蒙古族自治县",
      "adcode": "130828",
      "lat": 41.936383,
      "lon": 117.753309,
      "level": "district",
      "coordinate_system": "WGS84_APPROX_FROM_BD09",
      "coordinate_source": "pfinal_city_region_sql_bd09ll_converted",
      "aliases": [
        "承德围场满族蒙古族自治县",
        "承德市围场满族蒙古族自治县"
      ]
    },
    {
      "province": "河北省",
      "city": "承德市",
      "district": "平泉市",
      "name": "平泉市",
      "full_name": "河北省承德市平泉市",
      "display_name": "承德市平泉市",
      "adcode": "130881",
      "lat": 41.015882,
      "lon": 118.694832,
      "level": "district",
      "coordinate_system": "WGS84_APPROX_FROM_BD09",
      "coordinate_source": "pfinal_city_region_sql_bd09ll_converted",
      "aliases": [
        "承德市平泉市",
        "承德平泉市"
      ]
    },
    {
      "province": "河北省",
      "city": "承德市",
      "district": "承德高新技术产业开发区",
      "name": "承德高新技术产业开发区",
      "full_name": "河北省承德市承德高新技术产业开发区",
      "display_name": "承德市承德高新技术产业开发区",
      "adcode": "130871",
      "lat": 40.984315,
      "lon": 118.278202,
      "level": "district",
      "coordinate_system": "WGS84_APPROX_FROM_BD09",
      "coordinate_source": "pfinal_city_region_sql_bd09ll_converted",
      "aliases": [
        "承德市承德高新技术产业开发区",
        "承德承德高新技术产业开发区"
      ]
    },
    {
      "province": "河北省",
      "city": "沧州市",
      "district": "",
      "name": "沧州市",
      "full_name": "河北省沧州市",
      "display_name": "沧州市",
      "adcode": "1309",
      "lat": 38.303841,
      "lon": 116.833211,
      "level": "city",
      "coordinate_system": "WGS84_APPROX_FROM_BD09",
      "coordinate_source": "pfinal_city_region_sql_bd09ll_converted",
      "aliases": [
        "沧州"
      ]
    },
    {
      "province": "河北省",
      "city": "沧州市",
      "district": "新华区",
      "name": "新华区",
      "full_name": "河北省沧州市新华区",
      "display_name": "沧州市新华区",
      "adcode": "130902",
      "lat": 38.313587,
      "lon": 116.86025,
      "level": "district",
      "coordinate_system": "WGS84_APPROX_FROM_BD09",
      "coordinate_source": "pfinal_city_region_sql_bd09ll_converted",
      "aliases": [
        "沧州市新华区",
        "沧州新华区"
      ]
    },
    {
      "province": "河北省",
      "city": "沧州市",
      "district": "运河区",
      "name": "运河区",
      "full_name": "河北省沧州市运河区",
      "display_name": "沧州市运河区",
      "adcode": "130903",
      "lat": 38.310228,
      "lon": 116.826197,
      "level": "district",
      "coordinate_system": "WGS84_APPROX_FROM_BD09",
      "coordinate_source": "pfinal_city_region_sql_bd09ll_converted",
      "aliases": [
        "沧州市运河区",
        "沧州运河区"
      ]
    },
    {
      "province": "河北省",
      "city": "沧州市",
      "district": "沧县",
      "name": "沧县",
      "full_name": "河北省沧州市沧县",
      "display_name": "沧州市沧县",
      "adcode": "130921",
      "lat": 38.292599,
      "lon": 116.872263,
      "level": "district",
      "coordinate_system": "WGS84_APPROX_FROM_BD09",
      "coordinate_source": "pfinal_city_region_sql_bd09ll_converted",
      "aliases": [
        "沧州市沧县",
        "沧州沧县"
      ]
    },
    {
      "province": "河北省",
      "city": "沧州市",
      "district": "青县",
      "name": "青县",
      "full_name": "河北省沧州市青县",
      "display_name": "沧州市青县",
      "adcode": "130922",
      "lat": 38.58205,
      "lon": 116.798114,
      "level": "district",
      "coordinate_system": "WGS84_APPROX_FROM_BD09",
      "coordinate_source": "pfinal_city_region_sql_bd09ll_converted",
      "aliases": [
        "沧州市青县",
        "沧州青县"
      ]
    },
    {
      "province": "河北省",
      "city": "沧州市",
      "district": "东光县",
      "name": "东光县",
      "full_name": "河北省沧州市东光县",
      "display_name": "沧州市东光县",
      "adcode": "130923",
      "lat": 37.887666,
      "lon": 116.531361,
      "level": "district",
      "coordinate_system": "WGS84_APPROX_FROM_BD09",
      "coordinate_source": "pfinal_city_region_sql_bd09ll_converted",
      "aliases": [
        "沧州东光县",
        "沧州市东光县"
      ]
    },
    {
      "province": "河北省",
      "city": "沧州市",
      "district": "海兴县",
      "name": "海兴县",
      "full_name": "河北省沧州市海兴县",
      "display_name": "沧州市海兴县",
      "adcode": "130924",
      "lat": 38.142486,
      "lon": 117.49177,
      "level": "district",
      "coordinate_system": "WGS84_APPROX_FROM_BD09",
      "coordinate_source": "pfinal_city_region_sql_bd09ll_converted",
      "aliases": [
        "沧州市海兴县",
        "沧州海兴县"
      ]
    },
    {
      "province": "河北省",
      "city": "沧州市",
      "district": "盐山县",
      "name": "盐山县",
      "full_name": "河北省沧州市盐山县",
      "display_name": "沧州市盐山县",
      "adcode": "130925",
      "lat": 38.057277,
      "lon": 117.224858,
      "level": "district",
      "coordinate_system": "WGS84_APPROX_FROM_BD09",
      "coordinate_source": "pfinal_city_region_sql_bd09ll_converted",
      "aliases": [
        "沧州市盐山县",
        "沧州盐山县"
      ]
    },
    {
      "province": "河北省",
      "city": "沧州市",
      "district": "肃宁县",
      "name": "肃宁县",
      "full_name": "河北省沧州市肃宁县",
      "display_name": "沧州市肃宁县",
      "adcode": "130926",
      "lat": 38.422346,
      "lon": 115.824095,
      "level": "district",
      "coordinate_system": "WGS84_APPROX_FROM_BD09",
      "coordinate_source": "pfinal_city_region_sql_bd09ll_converted",
      "aliases": [
        "沧州市肃宁县",
        "沧州肃宁县"
      ]
    },
    {
      "province": "河北省",
      "city": "沧州市",
      "district": "南皮县",
      "name": "南皮县",
      "full_name": "河北省沧州市南皮县",
      "display_name": "沧州市南皮县",
      "adcode": "130927",
      "lat": 38.038819,
      "lon": 116.703199,
      "level": "district",
      "coordinate_system": "WGS84_APPROX_FROM_BD09",
      "coordinate_source": "pfinal_city_region_sql_bd09ll_converted",
      "aliases": [
        "沧州南皮县",
        "沧州市南皮县"
      ]
    },
    {
      "province": "河北省",
      "city": "沧州市",
      "district": "吴桥县",
      "name": "吴桥县",
      "full_name": "河北省沧州市吴桥县",
      "display_name": "沧州市吴桥县",
      "adcode": "130928",
      "lat": 37.626664,
      "lon": 116.385036,
      "level": "district",
      "coordinate_system": "WGS84_APPROX_FROM_BD09",
      "coordinate_source": "pfinal_city_region_sql_bd09ll_converted",
      "aliases": [
        "沧州吴桥县",
        "沧州市吴桥县"
      ]
    },
    {
      "province": "河北省",
      "city": "沧州市",
      "district": "献县",
      "name": "献县",
      "full_name": "河北省沧州市献县",
      "display_name": "沧州市献县",
      "adcode": "130929",
      "lat": 38.189257,
      "lon": 116.116915,
      "level": "district",
      "coordinate_system": "WGS84_APPROX_FROM_BD09",
      "coordinate_source": "pfinal_city_region_sql_bd09ll_converted",
      "aliases": [
        "沧州市献县",
        "沧州献县"
      ]
    },
    {
      "province": "河北省",
      "city": "沧州市",
      "district": "孟村回族自治县",
      "name": "孟村回族自治县",
      "full_name": "河北省沧州市孟村回族自治县",
      "display_name": "沧州市孟村回族自治县",
      "adcode": "130930",
      "lat": 38.052701,
      "lon": 117.097703,
      "level": "district",
      "coordinate_system": "WGS84_APPROX_FROM_BD09",
      "coordinate_source": "pfinal_city_region_sql_bd09ll_converted",
      "aliases": [
        "沧州孟村回族自治县",
        "沧州市孟村回族自治县"
      ]
    },
    {
      "province": "河北省",
      "city": "沧州市",
      "district": "泊头市",
      "name": "泊头市",
      "full_name": "河北省沧州市泊头市",
      "display_name": "沧州市泊头市",
      "adcode": "130981",
      "lat": 38.083078,
      "lon": 116.57242,
      "level": "district",
      "coordinate_system": "WGS84_APPROX_FROM_BD09",
      "coordinate_source": "pfinal_city_region_sql_bd09ll_converted",
      "aliases": [
        "沧州市泊头市",
        "沧州泊头市"
      ]
    },
    {
      "province": "河北省",
      "city": "沧州市",
      "district": "任丘市",
      "name": "任丘市",
      "full_name": "河北省沧州市任丘市",
      "display_name": "沧州市任丘市",
      "adcode": "130982",
      "lat": 38.710783,
      "lon": 116.092825,
      "level": "district",
      "coordinate_system": "WGS84_APPROX_FROM_BD09",
      "coordinate_source": "pfinal_city_region_sql_bd09ll_converted",
      "aliases": [
        "沧州任丘市",
        "沧州市任丘市"
      ]
    },
    {
      "province": "河北省",
      "city": "沧州市",
      "district": "黄骅市",
      "name": "黄骅市",
      "full_name": "河北省沧州市黄骅市",
      "display_name": "沧州市黄骅市",
      "adcode": "130983",
      "lat": 38.370721,
      "lon": 117.323663,
      "level": "district",
      "coordinate_system": "WGS84_APPROX_FROM_BD09",
      "coordinate_source": "pfinal_city_region_sql_bd09ll_converted",
      "aliases": [
        "沧州市黄骅市",
        "沧州黄骅市"
      ]
    },
    {
      "province": "河北省",
      "city": "沧州市",
      "district": "河间市",
      "name": "河间市",
      "full_name": "河北省沧州市河间市",
      "display_name": "沧州市河间市",
      "adcode": "130984",
      "lat": 38.444855,
      "lon": 116.092857,
      "level": "district",
      "coordinate_system": "WGS84_APPROX_FROM_BD09",
      "coordinate_source": "pfinal_city_region_sql_bd09ll_converted",
      "aliases": [
        "沧州市河间市",
        "沧州河间市"
      ]
    },
    {
      "province": "河北省",
      "city": "沧州市",
      "district": "河北沧州经济开发区",
      "name": "河北沧州经济开发区",
      "full_name": "河北省沧州市河北沧州经济开发区",
      "display_name": "沧州市河北沧州经济开发区",
      "adcode": "130971",
      "lat": 39.146648,
      "lon": 117.190689,
      "level": "district",
      "coordinate_system": "WGS84_APPROX_FROM_BD09",
      "coordinate_source": "pfinal_city_region_sql_bd09ll_converted",
      "aliases": [
        "沧州市河北沧州经济开发区",
        "沧州河北沧州经济开发区"
      ]
    },
    {
      "province": "河北省",
      "city": "沧州市",
      "district": "沧州高新技术产业开发区",
      "name": "沧州高新技术产业开发区",
      "full_name": "河北省沧州市沧州高新技术产业开发区",
      "display_name": "沧州市沧州高新技术产业开发区",
      "adcode": "130972",
      "lat": 38.337616,
      "lon": 116.80493,
      "level": "district",
      "coordinate_system": "WGS84_APPROX_FROM_BD09",
      "coordinate_source": "pfinal_city_region_sql_bd09ll_converted",
      "aliases": [
        "沧州市沧州高新技术产业开发区",
        "沧州沧州高新技术产业开发区"
      ]
    },
    {
      "province": "河北省",
      "city": "沧州市",
      "district": "沧州渤海新区",
      "name": "沧州渤海新区",
      "full_name": "河北省沧州市沧州渤海新区",
      "display_name": "沧州市沧州渤海新区",
      "adcode": "130973",
      "lat": 38.275783,
      "lon": 117.749333,
      "level": "district",
      "coordinate_system": "WGS84_APPROX_FROM_BD09",
      "coordinate_source": "pfinal_city_region_sql_bd09ll_converted",
      "aliases": [
        "沧州市沧州渤海新区",
        "沧州沧州渤海新区"
      ]
    },
    {
      "province": "河北省",
      "city": "廊坊市",
      "district": "",
      "name": "廊坊市",
      "full_name": "河北省廊坊市",
      "display_name": "廊坊市",
      "adcode": "1310",
      "lat": 39.5365,
      "lon": 116.678083,
      "level": "city",
      "coordinate_system": "WGS84_APPROX_FROM_BD09",
      "coordinate_source": "pfinal_city_region_sql_bd09ll_converted",
      "aliases": [
        "廊坊"
      ]
    },
    {
      "province": "河北省",
      "city": "廊坊市",
      "district": "安次区",
      "name": "安次区",
      "full_name": "河北省廊坊市安次区",
      "display_name": "廊坊市安次区",
      "adcode": "131002",
      "lat": 39.51937,
      "lon": 116.697036,
      "level": "district",
      "coordinate_system": "WGS84_APPROX_FROM_BD09",
      "coordinate_source": "pfinal_city_region_sql_bd09ll_converted",
      "aliases": [
        "廊坊安次区",
        "廊坊市安次区"
      ]
    },
    {
      "province": "河北省",
      "city": "廊坊市",
      "district": "广阳区",
      "name": "广阳区",
      "full_name": "河北省廊坊市广阳区",
      "display_name": "廊坊市广阳区",
      "adcode": "131003",
      "lat": 39.521757,
      "lon": 116.705018,
      "level": "district",
      "coordinate_system": "WGS84_APPROX_FROM_BD09",
      "coordinate_source": "pfinal_city_region_sql_bd09ll_converted",
      "aliases": [
        "廊坊市广阳区",
        "廊坊广阳区"
      ]
    },
    {
      "province": "河北省",
      "city": "廊坊市",
      "district": "固安县",
      "name": "固安县",
      "full_name": "河北省廊坊市固安县",
      "display_name": "廊坊市固安县",
      "adcode": "131022",
      "lat": 39.437126,
      "lon": 116.292987,
      "level": "district",
      "coordinate_system": "WGS84_APPROX_FROM_BD09",
      "coordinate_source": "pfinal_city_region_sql_bd09ll_converted",
      "aliases": [
        "廊坊固安县",
        "廊坊市固安县"
      ]
    },
    {
      "province": "河北省",
      "city": "廊坊市",
      "district": "永清县",
      "name": "永清县",
      "full_name": "河北省廊坊市永清县",
      "display_name": "廊坊市永清县",
      "adcode": "131023",
      "lat": 39.320615,
      "lon": 116.493061,
      "level": "district",
      "coordinate_system": "WGS84_APPROX_FROM_BD09",
      "coordinate_source": "pfinal_city_region_sql_bd09ll_converted",
      "aliases": [
        "廊坊市永清县",
        "廊坊永清县"
      ]
    },
    {
      "province": "河北省",
      "city": "廊坊市",
      "district": "香河县",
      "name": "香河县",
      "full_name": "河北省廊坊市香河县",
      "display_name": "廊坊市香河县",
      "adcode": "131024",
      "lat": 39.760359,
      "lon": 116.999763,
      "level": "district",
      "coordinate_system": "WGS84_APPROX_FROM_BD09",
      "coordinate_source": "pfinal_city_region_sql_bd09ll_converted",
      "aliases": [
        "廊坊市香河县",
        "廊坊香河县"
      ]
    },
    {
      "province": "河北省",
      "city": "廊坊市",
      "district": "大城县",
      "name": "大城县",
      "full_name": "河北省廊坊市大城县",
      "display_name": "廊坊市大城县",
      "adcode": "131025",
      "lat": 38.703986,
      "lon": 116.648266,
      "level": "district",
      "coordinate_system": "WGS84_APPROX_FROM_BD09",
      "coordinate_source": "pfinal_city_region_sql_bd09ll_converted",
      "aliases": [
        "廊坊大城县",
        "廊坊市大城县"
      ]
    },
    {
      "province": "河北省",
      "city": "廊坊市",
      "district": "文安县",
      "name": "文安县",
      "full_name": "河北省廊坊市文安县",
      "display_name": "廊坊市文安县",
      "adcode": "131026",
      "lat": 38.872363,
      "lon": 116.451973,
      "level": "district",
      "coordinate_system": "WGS84_APPROX_FROM_BD09",
      "coordinate_source": "pfinal_city_region_sql_bd09ll_converted",
      "aliases": [
        "廊坊市文安县",
        "廊坊文安县"
      ]
    },
    {
      "province": "河北省",
      "city": "廊坊市",
      "district": "大厂回族自治县",
      "name": "大厂回族自治县",
      "full_name": "河北省廊坊市大厂回族自治县",
      "display_name": "廊坊市大厂回族自治县",
      "adcode": "131028",
      "lat": 39.8847,
      "lon": 116.983819,
      "level": "district",
      "coordinate_system": "WGS84_APPROX_FROM_BD09",
      "coordinate_source": "pfinal_city_region_sql_bd09ll_converted",
      "aliases": [
        "廊坊大厂回族自治县",
        "廊坊市大厂回族自治县"
      ]
    },
    {
      "province": "河北省",
      "city": "廊坊市",
      "district": "霸州市",
      "name": "霸州市",
      "full_name": "河北省廊坊市霸州市",
      "display_name": "廊坊市霸州市",
      "adcode": "131081",
      "lat": 39.123447,
      "lon": 116.385856,
      "level": "district",
      "coordinate_system": "WGS84_APPROX_FROM_BD09",
      "coordinate_source": "pfinal_city_region_sql_bd09ll_converted",
      "aliases": [
        "廊坊市霸州市",
        "廊坊霸州市"
      ]
    },